orr_id, name, location, date, year, lat, lon, type, cause
8659,Molasses Spill,"Honolulu Harbor, HI",2013-Sep-10,2013,21.311597,-157.877484,Other,
8658,F/V ANDRIANNA aground,"Outside Grays Harbor, WA",2013-Sep-06,2013,46.9013888889,-124.134444444,Potential Oil Spill,Grounding
8657,F/V SEA BREAKER sunk,"Pt. Roberts, WA",2013-Sep-05,2013,48.9421666667,-122.993,Potential Oil Spill,Sunken Vessel
8656,S/V Perd Pas Le Nord,"Peard Bay, North Slope, Alaska",2013-Sep-04,2013,70.8568333333,-158.690666667,Potential Oil Spill,Grounding
8653,Mystery Tar Balls,"Cape Canaveral, FL",2013-Aug-28,2013,28.289781,-80.607366,Oil Spill,Mystery Spill
8654,PBF Energy,"Delaware City, DE",2013-Aug-28,2013,39.5777777778,-75.5888888889,Oil Spill,Leaking Tank
8651,Mystery Spill-W Cameron Blk 110,"Gulf of Mexico south of Port Arthur, TX",2013-Aug-22,2013,29.5071666667,-93.3665,Potential Oil Spill,Mystery Spill
8650,"21 foot bayliner, grounded","Sekiu River mouth, WA",2013-Aug-21,2013,48.2879916667,-124.395580556,Potential Oil Spill,Grounding
8645,Tug Doris Moran / Barge Alexandra,"Buzzards Bay, MA",2013-Aug-14,2013,41.6091472222,-70.7926138889,Other,Collision
8643,Cessna 150 Plane Crash,"near Isla Morada, FL",2013-Aug-08,2013,25.3,-80.3,Oil Spill,Plane Crash
8639,Feeling Free,"Woods Hole, MA",2013-Jul-29,2013,41.5147222222,-70.6733333333,Potential Oil Spill,Grounding
8641,Hilcorp Energy at Texaco Canal 28Jul13,"South of Lafitte, LA",2013-Jul-28,2013,29.5833333333,-90.0666666667,Oil Spill,Pipeline Leak
8638,Jack Up Rig Hercules 265,"40 NM south of Timbalier Bay, LA",2013-Jul-23,2013,28.3841666667,-90.5288888889,"Oil Spill, Potential Oil Spill",Well Blowout
8637,"Apollo Energy,Johnson Bayou LA-19Jul13","Johnson Bayou, LA between Port Arthur and Calcasieu R.",2013-Jul-19,2013,29.8252777778,-93.625,Oil Spill,Discharge / Dumping
8635,Mystery Sheen,"Merrimack River, MA",2013-Jul-16,2013,42.8133333333,-70.8666666667,Oil Spill,
8636,"South Pass, LA 16Jul13","South Pass of the Mississippi R delta, LA",2013-Jul-16,2013,29.0569444444,-89.3061111111,Oil Spill,Pipeline Leak
8634,"Taylor Energy Platform ""Saratoga""",Gulf of Mexico off Miss. R delta,2013-Jul-14,2013,28.936,-88.9688333333,Oil Spill,Destroyed oil platform
8629,Running Free,"Marthas Vineyard, MA",2013-Jul-10,2013,41.3303333333,-70.4833333333,Other,Grounding
8627,Wellhead Release,"Ship Shoal Block 225, GOM, Louisiana",2013-Jul-09,2013,28.4666666667,-91.3166666667,Oil Spill,Well Blowout
8625,FV Naknek Spirit,"Poe Bay, Passage Canal, PWS, AK",2013-Jul-06,2013,60.8297,-148.516816667,Oil Spill,Grounding
8621,Sunken Vessel,"Entrance to St Mary's River, MI",2013-Jul-01,2013,46.4737888889,-84.579525,Oil Spill,Sunken Vessel
8617,Antilles Gas Propane leak,"Christianstead, St Croix, USVI",2013-Jun-25,2013,17.7471998333,-64.7052998333,Chemical/Biological Spill,Leaking Tank
8616,"aircraft crash Dorado Beach, Puerto Rico","near shoreline at Dorado Beach, Puerto Rico",2013-Jun-23,2013,18.4736666667,-66.2501666667,Oil Spill,Plane Crash
8614,Mystery Spill,"Michigan City, IN",2013-Jun-18,2013,41.6844805556,-87.00485,"Potential Oil Spill, Potential Chemical/Biological Spill",USCG/State investigation ongoin
8613,Williams Olefin Chemical Plant,"Geismar, LA",2013-Jun-13,2013,30.2339472222,-91.0534722222,Chemical/Biological Spill,Fire / Explosion
8609,BBC Arizona,"Valdez, AK",2013-Jun-11,2013,61.1166666667,-146.266666667,Potential Oil Spill,Leaking Shipping Container
8608,Pacific Coast Seafood Company,"Warrenton, Oregon",2013-Jun-04,2013,46.1677333333,-123.922158333,Potential Chemical/Biological Spill,Fire / Explosion
8607,F/V Neahkanie,"Whidbey Island, WA",2013-Jun-04,2013,48.085,-122.61,Potential Oil Spill,Grounding
8606,M/V Matthew I,"83 NM South of Vieques Island, Puerto Rico",2013-Jun-02,2013,16.7166666667,-65.3833333333,"Oil Spill, Other",Sunken Vessel
8605,F/V Georgia Girl,SE of Tybee Island Georgia,2013-May-31,2013,31.895,-80.8566666667,Potential Oil Spill,Sunken Vessel
8600,M/T Sichem Edinburgh,"20 mi Off Galveston, TX",2013-May-20,2013,29.12,-94.57,Oil Spill,
8601,"ARCTIC STORM fire, potential spill","32 mile west of Grays Harbor, WA",2013-May-20,2013,46.8546722222,-124.922888889,Potential Oil Spill,Fire / Explosion
8596,TUG KALEEN MCALLISTER,"Baltimore, MD",2013-May-06,2013,39.268843,-76.580683,Oil Spill,Collision
8588,Mystery slick off Puerto  Rico,6 miles off SW corner of Puerto Rico,2013-Apr-25,2013,17.9116666667,-67.3033333333,Oil Spill,Mystery Spill
8585,Tug Delta Captain,"Offshore of Point Sur, CA",2013-Apr-13,2013,36.27,-122.155,Potential Oil Spill,Sunken Vessel
8583,Zinc Bromide,"120 mi Offshore, LA",2013-Apr-03,2013,27.265,-90.8083333333,Chemical/Biological Spill,Well Blowout
8584,Hydrogen Sulfide release,"Chalmette, LA",2013-Apr-03,2013,29.9375,-89.9683333333,Chemical/Biological Spill,
8582,Mystery Sheen,"Oahu, HI",2013-Mar-27,2013,21.2376666667,-157.808333333,Oil Spill,
8576,"Mystery Sheen, Timbalier Block 30","5mi Offshore, LA",2013-Mar-12,2013,28.9669444444,-90.3425,Oil Spill,Mystery Spill
8577,SMI 572 Collision,"Bayou Perot, Lafitte, LA",2013-Mar-12,2013,29.6338888889,-90.1772222222,Oil Spill,Collision
8574,Mystery Sheen ,"West Delta 80, LA",2013-Mar-09,2013,28.9955555556,-89.7469444444,Oil Spill,Mystery Spill
8575,UTV JUSTICE Sunk,"MM 161.5, Mississippi River, LA",2013-Mar-09,2013,30.05,-90.84,Potential Oil Spill,Sunken Vessel
8573,Mystery grease balls,"Vashon Island, WA",2013-Mar-07,2013,47.3824833333,-122.393586111,"Oil Spill, Other",Mystery Spill
8571,M/V Helena Star sunk,"Tacoma, WA",2013-Feb-28,2013,47.2767,-122.389413889,Potential Oil Spill,Capsized Vessel
8570,Tug Miss Melinda,"Near Empire Locks, LA",2013-Feb-28,2013,29.2441666667,-89.6028333333,Potential Oil Spill,Sunken Vessel
8572,M/V Champion Express adrift,"Off Half Moon Bay, CA",2013-Feb-28,2013,37.52,-122.686666667,Other,Vessel adrift
8569,Swift Energy Wellhead Allision,"Lake Washington, LA",2013-Feb-26,2013,29.3641666667,-89.7688888889,Oil Spill,Collision
8567,Offshore Collision,"Vermillion Block 94, LA",2013-Feb-26,2013,29.1911111111,-92.2819444444,Potential Oil Spill,Collision
8566,Oily Water Discharge,"Vermillion Bay, LA",2013-Feb-24,2013,29.6730555556,-91.9180555556,Oil Spill,Discharge / Dumping
8565,"Apache Rig, Main Pass 295",20 mi Offshore LA,2013-Feb-15,2013,29.26873232,-88.6344579,Potential Oil Spill,Well Blowout
8564,Barge YON268,"Apra Harbor, Guam",2013-Feb-12,2013,13.4421388889,144.664055556,Potential Oil Spill,Derelict vessel
8562,Barge MOC-12 Allision with Miss. R. Bridge,"Miss R. at Vicksburg, MS",2013-Jan-27,2013,32.31498,-90.90706,Oil Spill,Collision
8557,"UTV Saint Paul, MM 135","North of New Orleans, LA",2013-Jan-17,2013,30.05,-90.51,Potential Oil Spill,Collision
8556,"ORB Exploration, Bayou Sorrel","Outside Baton Rouge, LA",2013-Jan-15,2013,30.1945,-91.4546111111,Oil Spill,Pipeline Leak
8553,M/T Elia,"Baytown, TX",2013-Jan-13,2013,29.7,-95,Oil Spill,Transfer
8549,Shell Drill Rig Kulluk adrift,NW Gulf of Alaska,2012-Dec-29,2012,56.65317,-153.48167,Potential Oil Spill,Grounding
8548,TX Petroleum Investment. Co,"Breton Sound, LA Gulf of Mexico",2012-Dec-26,2012,29.5786111111,-89.1175,Oil Spill,Discharge / Dumping
8546,M/T STENA PRIMORSK,"Albany, NY",2012-Dec-20,2012,42.3930555556,-73.7669444444,Potential Oil Spill,Grounding
8545,MODU in Distress,"14nm Offshore, LA",2012-Dec-17,2012,29.32145,-92.4688166667,Potential Oil Spill,Vessel in Distress
8528,Chloride Solution,"Jackson, AL",2012-Nov-11,2012,31.5,-87.9,Chemical/Biological Spill,Leaking Tank
8525,Oiled Wildlife," St Lawrence Island, Alaska",2012-Nov-07,2012,61.8166666667,-176.916666667,Oil Spill,
8524,Barge HMS 2000,"Port Angeles, WA",2012-Nov-07,2012,48.1417277778,-123.446452778,Oil Spill,Transfer
8521,Hurricane Sandy - Spills in the Arthur Kill,"Arthur Kill, NJ",2012-Oct-31,2012,74.255,-40.5416666667,"Oil Spill, Potential Chemical/Biological Spill",hurricane
8514,F/V MAVERICK,"30 miles W. of La Push, WA",2012-Sep-28,2012,47.925,-125.326666667,Oil Spill,Collision
8511,"F/V GEMINI, F/V WESTERN FLYER","Swinomish Channel, WA",2012-Sep-24,2012,48.4548,-122.514944444,Oil Spill,Capsized Vessel
8507,Mystery Sheen,"Cheboygan, MI",2012-Sep-04,2012,45.6469444444,-84.4744444444,Other,Algal sheen
8508,Hurricane Isaac - Sector Mobile Responses,"Sector Mobile, AOR-MS, AL, FL Panhandle",2012-Sep-01,2012,30.65,-88.06,Other,Hurricane Response
8504,Anhydrous ammonia leak,"Fisherman's terminal, Seattle",2012-Aug-31,2012,47.6464361111,-122.350052778,Chemical/Biological Spill,Leaking Tank
8502,Southern Recycling Drifting Dry Dock,Gulf of Mexico off LA,2012-Aug-28,2012,27.5,-90.2166666667,Other,Drifting Dry Dock Search
8500,Hansa Berlin,"Mariel, Cuba",2012-Aug-27,2012,23.0333333333,-82.7833333333,Potential Oil Spill,Grounding
8501,Westshore Pipeline,"Palos Heights, IL",2012-Aug-27,2012,41.6820166667,-87.8309861111,Oil Spill,Pipeline Leak
8497,Platform IRENE potential spill,"Off Point Arguello, CA",2012-Aug-24,2012,34.6072222222,-120.727777778,Potential Oil Spill,Pipeline pressure drop
8499,Energy 21 Pipeline Leak W Delta31,"Gulf of Mexico 30mi SE of Grand Isle, LA",2012-Aug-24,2012,29.1438888889,-89.6755555556,Oil Spill,Pipeline Leak
8498,F/V Sea Biscuit,"Near Bodega Bay, CA",2012-Aug-24,2012,38.3067361111,-123.019272222,Oil Spill,Grounding
8496,Mystery sheen,"San Pedro Channel, Off Los Angeles, CA",2012-Aug-23,2012,33.5015,-118.118,Oil Spill,Mystery Spill
8495,Walter Oil &amp; Gas - W Delta 107,Gulf of Mex just off MISS R. SW Pass,2012-Aug-22,2012,28.83025,-89.5269,Oil Spill,Pipeline Leak
8493,Sun Drilling Divinylbenzene tank fire,"Belle Chasse, LA, Miss R. MM-67",2012-Aug-17,2012,29.858,-89.983,Chemical/Biological Spill,Fire / Explosion
8492,"F/V ""Up The Ladder""","Cuttyhunk, MA",2012-Aug-16,2012,41.4163333333,-70.9457833333,Oil Spill,Grounding
8490,M/V Ocean Crescent ,"GOMEX south of Pensacola, FL",2012-Aug-03,2012,29.1233333333,-87.1533333333,Oil Spill,Discharge / Dumping
8491,TCI Fire,"Ghent, NY",2012-Aug-02,2012,42.3273472222,-73.7098166667,Chemical/Biological Spill,Collision
8485,FV View Point,"Prince of Wales Bay, SE Alaska",2012-Jul-29,2012,54.8316666667,-131.928333333,Oil Spill,Grounding
8489,Sunken NPS work boat,"Adelup, Guam",2012-Jul-29,2012,13.4811111111,144.722222222,,Capsized Vessel
8486,Mystery Sheen Vermillian 51,"GOMEX, 13mi south of LA Coast",2012-Jul-28,2012,29.3836111111,-92.1652777778,Oil Spill,Mystery Spill
8483,Pipeline Leak-Eugene Isl 305,"GOM 60mi SE of Timbalier Bay, LA",2012-Jul-27,2012,28.2930555556,-91.5663888889,Oil Spill,Pipeline Leak
8484,FV Mary Kay,"Cape Chacon, SE Alaska",2012-Jul-27,2012,54.6335833333,-132.072233333,Oil Spill,Sunken Vessel
8482,F/V Two Mikes sunk,"Yaquina Bay bar entrance, OR",2012-Jul-23,2012,44.6118555556,-124.082991667,Oil Spill,
8480,Tug MADISON,"South Lake Huron, near the entrance to St Clair River, MI",2012-Jul-19,2012,43.1016666667,-82.4508333333,Oil Spill,Sunken Vessel
8479,F/V Joe,"Terrebonne, LA",2012-Jul-18,2012,29.1746666667,-91.0198333333,Oil Spill,Sunken Vessel
8478,Mystery Sheen,"11 nm Offshore, LA",2012-Jul-12,2012,29.1211111111,-88.8463888889,Oil Spill,Mystery Spill
8477,FV Sherry Ann,"Martha's Vineyard, MA",2012-Jul-11,2012,41.19308,-70.8008333333,Potential Oil Spill,Grounding
8476,Chassell Mercury Spill,"Portage Lake, Chassell, MI",2012-Jul-09,2012,47.06359,-88.5184,Chemical/Biological Spill,Leaking storage flasks
8475,Oily Waste Discharge,"35 miles Offshore, Louisiana",2012-Jul-08,2012,28.4558333333,-91.0813888889,Oil Spill,Discharge / Dumping
8474,F/V Excellence ammonia release,"Dutch Harbor, AK",2012-Jul-06,2012,53.9,-166.541666667,Chemical/Biological Spill,Refrigeration system leak
8473,MSRC Dispersant Exercise Issue-13Jun2012,"Chandeleur Sound, LA",2012-Jul-05,2012,29.8333333333,-89.0666666667,Other,Dispersant test exercise
8472,F/V Sound Leader sunk,"Offshore Newport, OR",2012-Jul-03,2012,44.6666666667,-124.1,Potential Oil Spill,Sunken Vessel
8470,F/V Quest Sunk,"Offshore Westport, WA",2012-Jun-29,2012,46.9666666667,-124.466666667,Potential Oil Spill,
8467,500 lbs Propane Tanks,"Duluth, MN",2012-Jun-23,2012,46.6551166667,-92.2685333333,Potential Chemical/Biological Spill,River flooding
8465,MV Jireh,"Mona Island, PR",2012-Jun-21,2012,18.0678333333,-67.925,Potential Oil Spill,Grounding
8461,Pleasure Craft Revenge,"Carrington Point, Santa Rosa Island, CA",2012-Jun-10,2012,34.0316666667,-120.04,Potential Oil Spill,Sunken Vessel
8460,M/V Monterrey,"Chiniak Bay, Kodiak, AK",2012-Jun-09,2012,57.755,-152.446666667,Oil Spill,Grounding
8458,Pipeline Leak,"Off Atchafalaya Bay, LA",2012-Jun-07,2012,29.3586111111,-91.5033333333,Oil Spill,Pipeline Leak
8457,Army Corps vessel,"NW of Eureka, CA",2012-Jun-06,2012,41.1383333333,-124.386333333,Oil Spill,Discharge / Dumping
8456,CF Industries Ammonia Release,"Donaldsonville, LA",2012-May-31,2012,30.0977777778,-90.9555555556,Chemical/Biological Spill,Tornado - damaged flairs
8454,Platform Fire SP 93 B,Gulf of Mexico south of Miss R. (LA),2012-May-29,2012,28.6616666667,-89.4083333333,Potential Oil Spill,Fire / Explosion
8452,FV ARIES sunk,"Offshore of Umpqua Bar, OR",2012-May-29,2012,43.6709722222,-124.248333333,Potential Oil Spill,Capsized Vessel
8451,Mystery Sheen,"South Marsh Island Block 112, Offshore LA",2012-May-23,2012,28.4133333333,-91.9227777778,Oil Spill,Mystery Spill
8450,Mystery Sheen,"Off San Diego, CA",2012-May-22,2012,32.72,-117.596666667,Potential Oil Spill,
8449,Mystery Sheen West Delta 117,"28nmi SE of west side ofMiss R. Delta, LA",2012-May-18,2012,28.80585,-89.79,Oil Spill,Mystery Spill
8446,Deep Sea Fire and Spill,"Whidbey Island, Penn Cove, WA",2012-May-14,2012,48.2277777778,-122.706388889,Oil Spill,Fire / Explosion
8443,T/S Yare,"88 NM South of Andros Island, Bahamas",2012-May-11,2012,22.1885,-77.2773333333,Potential Oil Spill,Grounding
8445,MSC Idil,59 nm north of Puerto Rico,2012-May-11,2012,19.4516666667,-66.1066666667,Potential Oil Spill,potential
8444,F/V Lucky Diamond,Nearshore LA,2012-May-11,2012,29.4347222222,-92.2691666667,Potential Oil Spill,Fire / Explosion
8440,Makah F/V aground,"Neah Bay, WA",2012-May-09,2012,48.3946166667,-124.653466667,Potential Oil Spill,Grounding
8442,Platform Elly sheen,"Off Huntingon Beach, CA",2012-May-09,2012,33.5822222222,-118.1275,Oil Spill,Pipeline Leak
8441,Mystery Sheen,"Willamette River, OR",2012-May-09,2012,45.3565555556,-122.612027778,Oil Spill,Collision
8439,Pipeline Release,"Near Mississippi River Delta, LA",2012-May-07,2012,29.1105277778,-89.3755555556,Oil Spill,Pipeline Leak
8438,"M/V Anna Mersk, Leaking Container","Seattle, WA",2012-May-04,2012,47.5811111111,-122.353055556,Chemical/Biological Spill,Leaking Shipping Container
8448,M/V Skyroyal,"Near Honolulu, HI",2012-May-03,2012,20.8855555556,-138.451666667,Other,
8437,RowanXL-1 rig/TV FR8 Pride,"Port Aransas, TX channel",2012-May-02,2012,27.8183333333,-97.0083333333,Oil Spill,Collision
8436,Mystery Sheen,"South Timbalier Block 23, LA",2012-Apr-29,2012,29.0041666667,-90.1077777778,Oil Spill,Mystery Spill
8433,M/V Pacific Sea adrift,"Off Point Arena, CA",2012-Apr-24,2012,38.755,-124.015,Potential Oil Spill,Drifting ship
8432,Mystery Sheen,"Timbalier Bay, LA",2012-Apr-18,2012,29.1723333333,-90.4488333333,Oil Spill,Mystery Spill
8431,F/V Lady Myrtle,US/Canada Border (Maine/New Brunswick),2012-Apr-14,2012,44.7916666667,-66.875,Oil Spill,Fire / Explosion
8429,M/V Overseas Beryl,"Near New Orleans, LA",2012-Apr-09,2012,29.923256,-89.939554,Oil Spill,Leaking Tank
8421,"TUG INVADER, Vigor Marine Shipyard","Everett, WA",2012-Mar-19,2012,47.9814444444,-122.218055556,Oil Spill,Sunken Vessel
8420,"BOA Pipeline Strike, Barataria Pass","Near Grand Isle, LA",2012-Mar-17,2012,29.2789366667,-89.953875,"Oil Spill, Potential Oil Spill",Pipeline Leak
8419,Burning Platform,"Off Empire, LA",2012-Mar-16,2012,29.4575,-89.3930555556,"Oil Spill, Potential Oil Spill",Fire / Explosion
8416,Pipeline Release,"Near Grand Isle, LA",2012-Mar-14,2012,29.3197222222,-89.9691666667,Oil Spill,Pipeline Leak
8415,F/V CHEVELLE grounding with diesel leaking,"Yaquina Bay, OR",2012-Mar-10,2012,44.6116666667,-124.08,Oil Spill,Grounding
8414,Leaking container,"Harbor Island, Seattle,WA",2012-Mar-09,2012,47.5716027778,-122.349469444,Potential Chemical/Biological Spill,Leaking Shipping Container
8410,Garden Island Bay Barge hits old well,"Garden Island Bay, Miss R Delta, LA",2012-Feb-29,2012,29.0909,-89.1636,Oil Spill,Pipeline Leak
8409,Mystery Sheen,"South Marsh Island Block 223, LA",2012-Feb-27,2012,29.4083333333,-91.9922222222,Oil Spill,Mystery Spill
8405,F/V PLAN B,Southern Maine,2012-Feb-21,2012,43.2863333333,-70.2745,Oil Spill,Sunken Vessel
8404,Calcium Chloride ,120nm off TX,2012-Feb-19,2012,27.3958333333,-94.4522222222,Chemical/Biological Spill,Pipeline Leak
8403,Barge SMI 30020,"New Orleans, LA",2012-Feb-17,2012,30.0483333333,-90.5902777778,Oil Spill,Collision
8402,Condensate Sheen,"South Marsh Block 236, LA",2012-Feb-15,2012,29.3333333333,-92,Oil Spill,Pipeline Leak
8400,Tank Overflow,"Galveston, TX",2012-Feb-02,2012,29.1455555556,-94.8305555556,Oil Spill,Leaking Tank
8401,Leaking Pipeline,"Timbalier, LA",2012-Feb-02,2012,28.9397222222,-90.3558333333,Oil Spill,Pipeline Leak
8399,FV Kimberly grounding,"Shelikof Strait, Alaska",2012-Jan-28,2012,57.55,-155,Potential Oil Spill,Grounding
8398,Floating Barrel,"Port Aransas, TX",2012-Jan-27,2012,27.7333333333,-96.7166666667,Potential Oil Spill,Marine Debris
8397,Mystery Sheen,"Point A La Hache, Plaquemines Parish, LA",2012-Jan-24,2012,29.6166666667,-89.8,Oil Spill,Mystery Spill
8396,Mystery Sheen,"Grand Isle, LA",2012-Jan-20,2012,29.0430555556,-90.1194444444,Oil Spill,Mystery Spill
8392,Sodium Hydroxide Barge,"Mississippi River, LA",2012-Jan-08,2012,30.0333333333,-90.8333333333,Chemical/Biological Spill,Transfer
8391,Mystery Sheen,"South Marsh Island Block 239, LA",2012-Jan-06,2012,29.3191666667,-91.9156666667,Oil Spill,Pipeline Leak
8390,Mystery spill,"Orofino, ID",2011-Dec-30,2011,46.4803277778,-116.257355556,Oil Spill,mystery release
8389,Russian icebreaker Tanker Renda,"Winter fuel delivery to Nome, Alaska",2011-Dec-21,2011,64.4906777778,-165.446005556,Potential Oil Spill,
8385,Tug Nathan Stewart &amp; Tanker Barge Adrift,NE Gulf of Alaska,2011-Dec-18,2011,58.46,-138.365,Potential Oil Spill,No release to date.  
8379,M/V Morning Cedar,"Aleutian Islands, Alaska",2011-Dec-07,2011,52.3466666667,-178.61,Potential Oil Spill,No spill occurred
8374,Truck Roll-Over,"Clearwater River, ID",2011-Nov-12,2011,46.6392138889,-121.387719444,Oil Spill,Truck roll-over
8373,Sinking Barge,"Offshore, Miami, FL",2011-Nov-08,2011,25.65,-79.75,Other,Sunken Vessel
8372,Oak Creek Power Station,"Western Lake Michigan, south of Milwaukee, WI",2011-Nov-02,2011,42.8444444444,-87.8286111111,Other,Landslide
8371,Sunken barge carrying caustic soda,"Mississippi River, mile marker 81",2011-Oct-30,2011,37.6501583333,-89.5152666667,Potential Chemical/Biological Spill,Sunken Vessel
8368,M/V Justin,"Alki Point, Washington",2011-Oct-14,2011,47.5205194444,-122.401419444,Oil Spill,Sunken Vessel
8367,C/V Edfu,"near mouth of Columbia River, OR",2011-Oct-11,2011,46.1856111111,-124.276555556,Potential Oil Spill,
8364,F/V Phyllis aground,"South shore of Santa Cruz Island, CA",2011-Sep-27,2011,33.9871333333,-119.648166667,Potential Oil Spill,Grounding
8361,Crowley Barge Adrift,"Diomede Islands, AK",2011-Sep-21,2011,65.7852777778,-168.978333333,Potential Oil Spill,lost tow
8360,Mystery slick,"North end of Barataria Bay, La.",2011-Sep-15,2011,29.3877777778,-89.8661111111,Oil Spill,Mystery Spill
8357,Drifting Telephone Poles,"Gulf of Mexico, LA",2011-Sep-13,2011,28.4408333333,-90.685,Other,Drifting telephone poles - Nav hazard
8358,Cedyco Manila Village Spill,"Bayou Dupont, LA",2011-Sep-11,2011,29.51055,-89.98611,Oil Spill,Pipeline Leak
8351,Storage Tank Rupture,"Mobile River, AL",2011-Sep-01,2011,30.7172222222,-88.0386111111,Oil Spill,Leaking Tank
8350,F/V Midnight Hour,"Approx 1nm off the West End of Santa Catalina Island, CA",2011-Aug-31,2011,33.4666666667,-118.625,Potential Oil Spill,Sunken Vessel
8353,Capital Terminal,"East Providence, RI",2011-Aug-31,2011,41.8284416667,-71.3744305556,Oil Spill,Pipeline Leak
8348,Hurricane Irene,"East Coast, US",2011-Aug-24,2011,37.5885,-76.1811111111,"Potential Oil Spill, Potential Chemical/Biological Spill",
8346,Mystery slick,"17 miles offshore; Port Arthur, TX",2011-Aug-23,2011,29.467,-92.8026666667,Oil Spill,Mystery Spill
8345,Mystery Sheen in Block MC-252-19Aug11,Gulf of Mexico Lease Block Mississippi Canyon 252,2011-Aug-20,2011,28.7,-88.4,Oil Spill,Mystery Spill
8344,Texas City #6 fuel spill,"Texas City, Galveston Bay",2011-Aug-19,2011,29.3702222222,-94.8905305556,Oil Spill,Transfer
8341,Anacostia River,"Washington, DC",2011-Aug-15,2011,38.8807277778,-76.9717638889,Oil Spill,
8339,T/V Sea Falcon,"Delaware Bay, Delaware",2011-Aug-06,2011,38.94,-75.12,Potential Oil Spill,Grounding
8331,F/V Copacetic sinking,"Puget Pt, NW Gulf of Alaska",2011-Jul-07,2011,59.9166666667,-148.45,Potential Oil Spill,Sunken Vessel
8330,Sheen report,"Off San Diego, CA",2011-Jun-29,2011,32.6116666667,-117.4305,Potential Oil Spill,Mystery Spill
8329,Tug Aries,"95 miles east of St. Paul, Alaska",2011-Jun-26,2011,56.8,-167.383333333,Oil Spill,Sunken Vessel
8326,"Mystery Slick, Breton Sound (NRC 978985)","Breton Sound, GOM",2011-Jun-08,2011,29.4347222222,-89.2736111111,Oil Spill,Mystery Spill
8325,F/V Relentless Pursuit,"Sandy Hook, NJ",2011-Jun-05,2011,40.4783333333,-74.0177777778,Potential Oil Spill,Grounding
8322,CFS PAMPLONA,"Barceloneta, PR",2011-May-31,2011,18.55,-66.5616666667,Potential Oil Spill,Collision
8321,"F/V Nor'Quest grdg-Bristol Bay, Alaska",NW side of Hagemeister Island,2011-May-25,2011,58.745,-160.881666667,Potential Oil Spill,Grounding
8320,Re-fueling plane crash,"Point Mugu NAS, CA",2011-May-19,2011,34.1083333333,-119.133333333,Oil Spill,Plane Crash
8319,F/V Atlantic Traveler,"Manasquan Inlet, NJ",2011-May-11,2011,40.0983333333,-74.03,Oil Spill,Sunken Vessel
8318,RRT6 Activated:  2011 Mississippi River Flood,Lower Mississippi River States,2011-May-09,2011,40.6997222222,-74.0230555556,Other,Flood Event
8306,F/V Kathy Ann,"Avila Beach, CA",2011-Mar-30,2011,35.162,-120.751,Potential Oil Spill,Sunken Vessel
8301,MV Bethesda-Barge MMI-612,"Helena, AR at Helena Bridge on Miss R.",2011-Mar-17,2011,34.5292277778,-90.5902777778,Oil Spill,Collision
8298,Mystery Sheen,"Ship Shoal Block 65, LA",2011-Mar-13,2011,28.9972,-90.8617,Oil Spill,
8296,Javon Canyon spill hindcast request,"San Buenaventura State Beach, Ventura, CA",2011-Mar-09,2011,34.2733,-119.288,Potential Oil Spill,Pipeline Leak
8295,F/V Capt Andrew,"King Cove, Alaska Peninsula",2011-Mar-06,2011,55.0252,-162.224,Potential Oil Spill,Grounding
8293,Pipeline Gasoline Spill,Galveston Bay,2011-Feb-24,2011,29.3018333333,-94.7999444444,Oil Spill,Pipeline Leak
8291,F/V Midnite Son,"Afognak Island, Alaska",2011-Feb-11,2011,58.2727,-153.094,Potential Oil Spill,Grounding
8290,F/V Terrigail,"Unalaska Isl., Aleutian Isl., Alaska",2011-Feb-09,2011,53.4333,-167.383,Oil Spill,Grounding
8287,Algal Bloom Incident,"Gulf of Mexico off Panama City, FL-St. Andrews Bay",2011-Jan-31,2011,30.1667,-85.7,Other,Algal Bloom
8284,Potomac River Mineral Oil Spill,"Alexandria, VA",2011-Jan-25,2011,38.8041666667,-77.0438333333,Oil Spill,
8283,F/V Ruffian,"Latouche Isl, PWS, Alaska",2011-Jan-25,2011,60.0793,-147.862,Potential Oil Spill,
8279,Mystery spill-GOMEX off Barataria Bay,Gulf of Mexico 25 miles south of Barataria Bay,2011-Jan-06,2011,28.9078,-89.8231,Oil Spill,Mystery Spill
8278,Cape Canaveral #6 spill,Cape Canaveral Port,2010-Dec-29,2010,28.4128,-80.6128,Oil Spill,
8277,Black Oil Patch,"Manasquan Inlet, NJ",2010-Dec-10,2010,40.0873,-73.9815,Oil Spill,
8276,M/V City of Redwood,Mile 626 Ohio River,2010-Dec-06,2010,38.2511111111,-85.7844444444,Chemical/Biological Spill,
8275,M/V Golden Seas,"70nm North of Adak Island, AK",2010-Dec-03,2010,52.7403,-176.138,Potential Oil Spill,
8274,M/V Nelson,"130 miles south of St Croix, USVI",2010-Dec-02,2010,15.3667,-64.6167,Oil Spill,Sunken Vessel
8272,Pipeline Failure (NRC Report 960033),"Near Vinton, Louisiana",2010-Nov-16,2010,30.0606,-93.5511,Oil Spill,Pipeline Leak
8266,Dead Birds Washed up,Lake Michigan,2010-Nov-04,2010,42.0997222222,-88.975,Other,
8265,MODU Power Failure,"Gulf of Mexico, LA",2010-Nov-03,2010,28.0337,-89.1007,Potential Oil Spill,power failure
8264,Barge transfer accident,"Goleta Point, CA",2010-Oct-29,2010,34.4075,-119.892,Oil Spill,Transfer
8260,Mystery Anomaly,"SW Pass, Louisiana",2010-Oct-22,2010,28.9441666667,-89.1738888889,Potential Oil Spill,
8259,Platform Gail,"East end of Santa B. Channel, Ca.",2010-Oct-22,2010,34.1258,-119.4,Oil Spill,
8258,Texas mystery anomaly,Offshore of Galveston.  To the south,2010-Oct-20,2010,28.0133,-94.5783,Potential Oil Spill,
8256,M/V CSL METIS,"Guayama, Puerto Rico",2010-Oct-12,2010,17.9198,-66.1573,Potential Oil Spill,Grounding
8255,Mystic,"Cay Sal Bank, Bahamas",2010-Oct-07,2010,23.881,-79.7765,Potential Oil Spill,
8254,Grounded Diesel Barge,St Kitts,2010-Oct-06,2010,17.2896,-62.7113,Potential Oil Spill,Grounding
8251,EB-164 Incident,"Gulf of Mexico, W of Flower Gardens NMS",2010-Sep-29,2010,27.8128,-94.3522,Oil Spill,Well leaking (not blowout)
8250,Sunken vessel,Off Dominican Republic,2010-Sep-23,2010,17.16,-69.8167,Potential Oil Spill,
8248,Stryker Barge Grounding,"North Slope, Alaska",2010-Sep-15,2010,70.5219,-150.096,Oil Spill,
8247,Ship Shoal Platform,31 nm south of Isle Dernieres,2010-Sep-14,2010,28.5227,-90.9022,Oil Spill,Equipment failure on platform
8246,Mariner Energy Well,"80 miles offshore Vermilion, LA",2010-Sep-02,2010,28.0596,-92.2712,Oil Spill,Fire / Explosion
8244,M/V JIA QIANG,"New Orleans, LA",2010-Aug-24,2010,29.936,-89.9986666667,Oil Spill,
8243,F/V Miss Kaitln,"Rockledge Dr, Indian River Florida",2010-Jul-29,2010,28.3047,-80.7007,Oil Spill,Fire / Explosion
8242,Barges Kirby 28083 &amp; Kirby 30001,"Lauderdale County, TN",2010-Jul-27,2010,35.54,-89.9,Chemical/Biological Spill,Collision
8241,T/V Pere Ana C,"Mud Lake, LA",2010-Jul-27,2010,29.4793,-90.0086,Oil Spill,Collision
8238,M/V Nordmeer,"Thunder Bay NMS, MI",2010-Jul-26,2010,45.136,-83.1598,Oil Spill,Sunken Vessel
8239,F/V Cape Cross,"Main Bay, AK",2010-Jul-26,2010,60.5298,-148.062,Oil Spill,Grounding
8240,Pipeline Failure,"Marshall, MI",2010-Jul-26,2010,42.2433,-84.9664,Oil Spill,Pipeline Leak
8237,Pleasure Craft Fire &amp; Spill,"Port Canaveral, FL",2010-Jul-18,2010,28.4097,-80.6294,Oil Spill,Fire / Explosion
8235,Tanker Isabelle K.,Houston Ship Channel,2010-Jul-14,2010,29.3637,-94.7915,Potential Chemical/Biological Spill,Grounding
8234,USCG Helo Crash,"La Push, WA",2010-Jul-08,2010,45.909,-124.644,Other,
8233,Algobay ,"Clayton, NY",2010-Jul-05,2010,44.4659,-75.7996,Potential Oil Spill,
8231,Mystery sheen,"14nm off San Diego, CA",2010-Jun-16,2010,32.5833,-117.5,Oil Spill,
8227,Barge Nestucca,8 miles off Columbia River Bar,2010-May-20,2010,46.2475,-124.284,Potential Oil Spill,
8228,F/V Nightwatch,"Off Eugene Island, La",2010-May-20,2010,29.3243,-91.5065,Potential Oil Spill,
8225,M/V Miss Maridith,"Biscayne Bay, Florida",2010-May-16,2010,25.4207,-80.1247,Oil Spill,Sunken Vessel
8226,F/V Charlie Girl,"Offshore, Cape Canaveral, FL",2010-May-15,2010,28.3884722222,-80.6038888889,Oil Spill,
8223,T/B Kirby 11323,"Sunshine, LA",2010-Apr-24,2010,30.2944,-91.1483,Chemical/Biological Spill,overpressure
8222,HH65 Sarnia,"Sarnia, Ontario",2010-Apr-22,2010,43.1097,-82.3503,Potential Oil Spill,Sunken Vessel
8221,F/V Big Cobb,"Darien, Georgia",2010-Apr-21,2010,31.3661,-81.4335,Potential Oil Spill,Sunken Vessel
8220,Deepwater Horizon,Gulf of Mexico,2010-Apr-21,2010,28.7367,-88.3872,"Oil Spill, Potential Oil Spill",Fire / Explosion
8229,Deepwater Horizon -- Florida Commands,Gulf of Mexico,2010-Apr-20,2010,27.5152777778,-81.5033333333,Oil Spill,Well Blowout
8219,F/V Pacific Bully,"Santa Ana jetty, CA",2010-Apr-20,2010,33.6298,-117.961,Potential Oil Spill,Grounding
8217,MS SUSANNE Diesel Spill,Gulf of Mexico off LA Coast,2010-Apr-13,2010,29.3608,-92.3397,Oil Spill,Transfer
8216,Rainbow Sheen,"West Delta, LA (Gulf of Mexico)",2010-Apr-07,2010,29.0664,-89.6678,Oil Spill,
8215,Pipeline Incident (NRC 936217),"Delta Wildlife Refuge, Louisiana",2010-Apr-06,2010,29.2563,-89.1864,Oil Spill,
8214,Mystery Sheen (NRC (36029),Gulf of Mexico off LA Coast,2010-Apr-03,2010,29.0717,-90.1736,Oil Spill,
8213,F/V Betty K,"7 miles west of Half Moon Bay, CA",2010-Apr-02,2010,37.5,-122.633,Oil Spill,Sunken Vessel
8038,DRILL -- SONS 2010 Exercise,"Off Portland, Maine",2010-Mar-22,2010,43.4857,-69.7885,Oil Spill,Collision
8206,Mystery tarballs,"Guam, Ritidian Pt",2010-Mar-18,2010,13.6583,144.863,Oil Spill,Mystery Spill
8200,Susan Ann,"Norfolk, VA",2010-Mar-01,2010,36.7691666667,-76.2933333333,Potential Oil Spill,
8199,SS Princess Kathleen,"Juneau, Alaska",2010-Feb-22,2010,58.3917,-134.767,Potential Oil Spill,Grounding
8196,F/V Perseverance,"60 miles S of Shinnecock, NY",2010-Feb-16,2010,39.8333,-72.1667,Oil Spill,Fire / Explosion
8187,Lost containers,"Off Key West, FL",2010-Jan-26,2010,24.1133,-81.6633,Other,containers went over the side
8184,T/V Eagle Otome-Barge Collision,"Port Arthur, TX",2010-Jan-23,2010,29.87,-93.93,"Oil Spill, Potential Chemical/Biological Spill",Collision
8182,RDA Fore River,"Quincy, MA",2010-Jan-19,2010,42.2397,-70.9706,Oil Spill,Sunken Vessel
8175,Adak Petroleum tank release,"Adak Island, Aleutian Isls, Alaska",2010-Jan-11,2010,51.8631,-176.639,Oil Spill,Transfer
8174,TV Sichem Defiance,"Gravesend Bay, NY",2010-Jan-10,2010,40.5983,-74.0142,Potential Chemical/Biological Spill,over pressurization
8172,West Cote Blanche Bay,"St. Mary Parish, LA",2010-Jan-08,2010,29.6878,-91.8006,Oil Spill,leaking valve
8169,Watson Bayou Heavy Fuel Oil Spill,"Panama City, FL",2010-Jan-03,2010,30.1451,-85.623,Oil Spill,
8167,F/V Sheila Rene,"Oregon Inlet, NC",2010-Jan-02,2010,35.77,-75.531,Potential Oil Spill,Grounding
8166,Crowley Tug Pathfinder,"Bligh Reef, Prince William Sound, Alaska",2009-Dec-23,2009,60.8383,-146.882,Oil Spill,Grounding
8165,Leaking Propane Tank,"Vashon Island, WA",2009-Dec-20,2009,47.4375,-122.467777778,,Leaking Tank
8164,LNG Carrier Matthew - Coral Grounding,"Guayanilla, PR",2009-Dec-15,2009,17.9608,-66.7581,,Grounding
8163,T/V Suhail Star,"Offshore Galveston, TX",2009-Dec-14,2009,27.605,-94.0383,Oil Spill,
8162,S/V RULING ANGEL-Coral Grounding,"St. Croix, USVI",2009-Dec-10,2009,16.756,-64.6965,,Grounding
8161,"CAPT MIKE, Sunken Vessel","Gulf of Mexico, off LA Coast",2009-Dec-06,2009,29.3997,-88.9701,Oil Spill,Sunken Vessel
8160,"Sulfur Dioxide Release, Conoco Phillips","Plaquemine Parish, LA",2009-Dec-05,2009,30.2889722222,-91.2345555556,Chemical/Biological Spill,
8159,P/C Fire Fly,"1.7nm off Morro Bay, CA",2009-Nov-26,2009,35.3467,-120.898,Potential Oil Spill,Sunken Vessel
8158,Making Time,"Ilwaco Harbor, WA",2009-Nov-22,2009,46.3044,-124.052,Oil Spill,
8157,FV Patricia Jean,"Point Judith, RI",2009-Nov-21,2009,41.3583,-71.5117,Potential Oil Spill,Grounding
8156,CSL Assiniboine,"St. Lawrence River, Canada/NY",2009-Nov-20,2009,44.7749,-75.3974,Potential Oil Spill,Grounding
8155,F/V Sea Wind,"Toke Point, Willapa Bay, WA",2009-Nov-19,2009,46.7083,-123.968,Potential Oil Spill,Grounding
8152,Sheen,"Ship Shoal Area, LA",2009-Nov-16,2009,28.8222,-90.9222,Oil Spill,
8153,Mystery Slick Observed (NRC 923762),"Gulf of Mexico, Cameron Parish, LA",2009-Nov-16,2009,29.6069,-93.2158,Oil Spill,
8150,La Princesa Barge Grounding,"Sandbridge, VA (Virginia Beach)",2009-Nov-13,2009,36.71,-75.9233,Potential Chemical/Biological Spill,Grounding
8146,F/V  Absolutely,Off Murrels Inlet South Carolina,2009-Nov-06,2009,33.403,-78.5582,Oil Spill,Sunken Vessel
8144,F/V Lisa Marie,"Unimak Isl., E. Aleutians, Alaska",2009-Nov-05,2009,55.2833,-164.133,Potential Oil Spill,
8145,USS Abraham Lincoln,"Bremerton, WA",2009-Nov-05,2009,47.5531,-122.654,Oil Spill,Discharge / Dumping
8143,LOOP Buoy #3,Offshore Louisiana,2009-Nov-05,2009,28.8853,-90.025,Potential Oil Spill,
8142,T/V Titan Express,"Miami River, Florida",2009-Nov-04,2009,25.7976,-80.2469,Oil Spill,Transfer
8137,M/V PAC ALKAID Oil Spill,"SW Pass, Mississippi Delta, GOM, LA",2009-Oct-30,2009,28.8717,-89.34,Oil Spill,
8140,F/V Lady Anna,"Kapolei, HI",2009-Oct-30,2009,21.3352777778,-158.057777778,Oil Spill,Weld break during removal to dry dock
8139,T/V Dubai Star,"San Francisco, CA",2009-Oct-30,2009,37.7658,-122.341,Oil Spill,Transfer
8141,F/V Carley Renee,"Unalaska Isl., Aleutians, Alaska",2009-Oct-30,2009,53.9,-166.1,Potential Oil Spill,Capsized Vessel
8138,Humble Canal Oil Spill,"Paradis, Louisiana",2009-Oct-29,2009,29.8569,-90.4585,Oil Spill,
8134,Port Stewart,"Yabacoa, Puerto Rico",2009-Oct-27,2009,18.045,-65.8048,,
8133,Caribbean Petroleum Corporation (CAPECO),"San Juan, Puerto Rico",2009-Oct-23,2009,18.4164,-66.1327,Oil Spill,Fire / Explosion
8130,Mystery spill,"Charleston Harbor, SC",2009-Oct-20,2009,32.75,-79.8833,Oil Spill,
8131,T/V KRYMSK Oil Spill,"Gulf of Mexico, Galveston Lightering Zone",2009-Oct-20,2009,28.6167,-94.5333,Oil Spill,
8129,Ambrose Vessel Project,"30 miles south of Eastern Long island, NY",2009-Oct-16,2009,40.3867,-72.3567,"Oil Spill, Potential Oil Spill",Sunken Vessel
8128,"Navy Jet Collision off Charleston, SC",10mi east of Bull's Bay SC,2009-Oct-15,2009,32.8297,-79.3368,Oil Spill,
8127,F/V Sea Dancer,"Sand Point, Alaska",2009-Oct-14,2009,55.365,-160.521,Potential Oil Spill,Grounding
8126,Captain Nathan shrimping vessel,"near Lake Pelto, LA",2009-Oct-09,2009,29.0333,-90.7333,Potential Oil Spill,
8125,F/V Lady Frances,"Santa Cruz Island, CA",2009-Oct-06,2009,34.0267,-119.54,Potential Oil Spill,Grounding
8120,Capsized Barge,"Great Egg Harbor Inlet, NJ",2009-Oct-02,2009,39.3076,-74.5548,Oil Spill,
8118,Mystery Spill Ship Shoal Block 118 ,Gulf of Mexico,2009-Oct-01,2009,28.8139,-90.8719,Oil Spill,Mystery Spill
8112,Tsunami,American Samoa,2009-Sep-29,2009,-14.2667,-170.717,Other,Earthquake generated Tsunami
8106,M/T Eagle Tuscon grounding,MM3 Miss. R,2009-Sep-28,2009,29.1932,-89.2675,Potential Oil Spill,Grounding
8105,T/S Stolt Vision,"Off coast of Savannah, Ga",2009-Sep-28,2009,32.0167,-80.6444,Oil Spill,Leaking Tank
8104,"NORCO Chemical Release, Equipment Failure",Norco LA,2009-Sep-27,2009,29.9992777778,-90.4122222222,Chemical/Biological Spill,Equipment Failure
8103,"Reported Sheen, S Timbalier Block 52","Gulf of Mexico, Off Louisiana Coast",2009-Sep-26,2009,28.9319,-90.4975,Oil Spill,
8102,CHEMICAL SUPPLIER Oil Spill,"Houston Ship Channel, Houston TX",2009-Sep-26,2009,29.7265,-95.2615,Oil Spill,Collision
8111,Leaking vessel,"Off Cape Flattery, Washington",2009-Sep-25,2009,48.349,-124.967,Oil Spill,
8101,Sailboat sinking,"Little Egg Inlet, NJ",2009-Sep-22,2009,39.4883,-74.2853,Oil Spill,Grounding
8100,Mystery Sheen,"Grande Isle Block 37, LA",2009-Sep-22,2009,29.0378,-90.11,Oil Spill,
8099,Refinery Fuel Gas Pipeline Leak,"Bayou Bienvenue, LA",2009-Sep-20,2009,30.0011,-89.9122,Chemical/Biological Spill,Pipeline Leak
8098,F/V ALWAYS LATE,"48 miles east of Cape May, NJ",2009-Sep-19,2009,38.3943,-73.9463,Potential Oil Spill,
8097,Crowley Barge 160-1,"Quinhagak, Alaska",2009-Sep-17,2009,59.75,-161.917,Potential Oil Spill,Grounding
8096,Anhydrous Ammonia Release,"St. Helens, OR",2009-Sep-12,2009,45.91,-122.823,Chemical/Biological Spill,
8095,SOUTHERN DANCER Incident and Diesel Spill,"Gulf of Mexico, LA",2009-Sep-12,2009,29.0158,-90.2772,Oil Spill,Collision
8094,Fishing Vessel SUGAR BABE,"Gulf of Mexico, LA",2009-Sep-11,2009,29.2012,-91.4811,Oil Spill,Sunken Vessel
8093,New Jersey Sailbot,30 miles off New Jersey Coast,2009-Sep-09,2009,39.9908,-73.442,Oil Spill,
8092,Mystery Sheen,"South Marsh Island Block 39, LA",2009-Sep-04,2009,28.8128,-91.9758,Potential Oil Spill,
8088,F/V Portlock,"10 miles from Long Beach, Wa",2009-Aug-31,2009,46.2833,-124.25,Oil Spill,
8087,Jet A Fuel spill,"Molokai, HI",2009-Aug-30,2009,21.0866666667,-157.021388889,Oil Spill,Baker tank dropped from helo
8085,JP-5 Fuel spill,"Surf City, NC",2009-Aug-27,2009,34.4278,-77.5119,Oil Spill,
8086,"Pelican Seafood, Inc.  - Ammonia","Pelican, AK",2009-Aug-27,2009,57.9567,-136.222,Potential Chemical/Biological Spill,
8083,Mystery Slick,Offshore Louisiana,2009-Aug-26,2009,27.1413,-92.5863,Oil Spill,Mystery Spill
8082,Sheen,Grand Isle Block 93,2009-Aug-25,2009,28.5489,-90.0686,Potential Oil Spill,
8080,Sandy Hook Chlorine Release,"Sandy Hook, NJ",2009-Aug-25,2009,40.453,-73.986,Chemical/Biological Spill,
8081,Ammonia leak,"St Croix, USVI",2009-Aug-25,2009,17.7092,-64.7692,Chemical/Biological Spill,Leaking Tank
8079,Sabine Block 13,"Off Sabine Pass, TX",2009-Aug-22,2009,29.573,-93.819,Oil Spill,Sunken Vessel
8078,Mystery Sheen,Eugene Island Block 184,2009-Aug-20,2009,28.7325,-91.6081,Oil Spill,
8076,M/V Katarina,"Apra Harbor, Guam",2009-Aug-20,2009,13.4525,144.644722222,Potential Chemical/Biological Spill,Salmonella contaminated gravel cargo
8075,USS Wenonah,"Treasure Island, San Francisco Bay, CA",2009-Aug-17,2009,37.8205,-122.361,Oil Spill,Sunken Vessel
8074,F/V Blue Diamond Fire,"Off Barnegat Inlet, NJ",2009-Aug-15,2009,39.225,-72.882,Potential Oil Spill,
8077,Mystery Sheen,Off Timbalier Island,2009-Aug-15,2009,28.9147,-90.4869,Oil Spill,
8073,M/V Harns,"Silver Bank, Dominican Republic",2009-Aug-13,2009,20.5167,-69.65,Potential Oil Spill,Grounding
8072,Mystery tarballs : S. FLA,"Boca Raton, FL",2009-Aug-11,2009,26.3133,-80.075,Oil Spill,most likely bilge pumping or tank cleaning
8071,F/V Little Linda Aground,"Newport, OR",2009-Aug-11,2009,44.6423,-124.066,Potential Oil Spill,Grounding
8068,Mystery Sheen,"Tillamook, OR",2009-Aug-05,2009,45.835,-125.242,Oil Spill,
8066,Barge Allision with Mooring Buoy,"ICW at Colorado River, TX",2009-Aug-04,2009,28.6817,-95.975,Potential Oil Spill,Collision
8067,High Island 262 Explosion,Gulf of Mexico,2009-Aug-04,2009,28.4711,-93.7392,Potential Oil Spill,Fire / Explosion
8062,"Grounded Barges, CTCO 336/358","Texas City Dike, TX",2009-Aug-01,2009,29.3795,-94.8673,Potential Oil Spill,Grounding
8061,Eugene Island Pipeline Spill,"GOM, LA",2009-Jul-26,2009,28.7211,-90.8675,Oil Spill,Pipeline Leak
8055,"Mystery Tarballs, South Padre Island Beaches","Gulf of Mexico, TX",2009-Jul-22,2009,26.1153,-97.1642,Oil Spill,Mystery Spill
8054,Green Canyon 645 Mystery Spill,Gulf of Mexico,2009-Jul-22,2009,27.3211,-90.5356,Oil Spill,Mystery Spill
8056,F/V TINA RAY,"Diamond Shoals, Cape Hateras, NC",2009-Jul-21,2009,35.1692,-75.2972,Oil Spill,Collision
8053,M/V Chios Liberty,"Port of Galveston, Texas",2009-Jul-20,2009,29.3119444444,-94.7969444444,Oil Spill,
8052,FV OJ Riggs,"Offshore if Long Beach Island, NJ",2009-Jul-19,2009,39.705,-73.6683,Potential Oil Spill,Fire / Explosion
8050,Suspected Pipeline Leak off Marsh Island,"Gulf of Mexico, LA",2009-Jul-16,2009,29.4927,-92.0167,Oil Spill,
8051,Unknown Ship Board Chemical Reaction,"Houston, TX",2009-Jul-16,2009,29.7611944444,-95.3638888889,Chemical/Biological Spill,
8049,F/V Unknown name,"19 miles west of Tarpon Springs, FL",2009-Jul-15,2009,28.1611,-83.105,Potential Oil Spill,Sunken Vessel
8048,M/Y Shogun,Biscayne National Park,2009-Jul-14,2009,25.5183,-80.175,Potential Oil Spill,Grounding
8047,Chalmette Refinery Hydrofluoric Acid Incident,"Chalmette, LA",2009-Jul-14,2009,29.931,-89.9763,Chemical/Biological Spill,Reported Equipment Failure
8046,Mystery release,"Kuk River near Wainright, AK",2009-Jul-10,2009,70.5,-160.5,Potential Oil Spill,
8044,Overturned Asphalt Truck,"McCord Creek, OR",2009-Jul-09,2009,45.5973888889,-121.987388889,Oil Spill,Overturned asphalt truck
8045,Mystery Slick,"Off Timbalier island, LA",2009-Jul-09,2009,29.0461,-90.5258,Potential Oil Spill,
8043,Grounded Barge,"Columbia River, OR",2009-Jul-09,2009,45.719,-121.508,Potential Oil Spill,
8041,Ethyl Acrylate - Dow Chemical,"Hahnville, LA",2009-Jul-07,2009,29.9766666667,-90.4097222222,Chemical/Biological Spill,
8042,Two mystery sheens,"Honolulu, HI",2009-Jul-07,2009,21.3069444444,-157.873166667,Oil Spill,
8040,Tank Truck Merrimack River,"Newburyport, MA",2009-Jul-06,2009,42.8344,-70.9123,Oil Spill,Tank Truck
8039,"Kirby Barge, HCL Vapor","ICW West of Intracostal City, LA",2009-Jul-04,2009,29.8072,-92.272,Chemical/Biological Spill,Leaking Tank
8037,Unknown material,"offshore Cameron, LA",2009-Jun-30,2009,29.2167,-93.1333,Other,
8036,Tug CAPT MAC Sinking,"Lake Pontchartrain, LA",2009-Jun-25,2009,30.0594,-90.0111,Oil Spill,Sunken Vessel
8035,"M/V TRISTAN, Stern Tube Oil","Gulf of Mexico, Galveston, TX ",2009-Jun-23,2009,29.0333,-94.4,Oil Spill,Equipment Failure
8034,F/V Hot Tuna,"Off Florence, OR",2009-Jun-21,2009,44.012,-124.189,Potential Oil Spill,Sunken Vessel
8033,"Sailing Vessel ""Paul Eric""","Rose Atoll, American Samoa",2009-Jun-16,2009,-14.5356,-168.151,Potential Oil Spill,Grounding
8031,DRILL -- PREP EXERCISE ---M/V OOPS,"Lake Erie, OH",2009-Jun-10,2009,41.7167,-83,Oil Spill,Collision
8032,Mystery tarballs,"Oahu and Kauai, Hawaii",2009-Jun-09,2009,21.3095,-157.656,Oil Spill,
8030,Mystery Sheen Eugene Block 300,"Gulf of Mexico, off LA",2009-Jun-06,2009,28.2008,-91.6564,Oil Spill,Mystery Spill
8029,Underwater Platform Spill,approx.170 miles offshore,2009-May-28,2009,26.6983,-92.6283,Oil Spill,
8027,CSX Railroad Derailment,"Green Mountain, NC",2009-May-27,2009,35.9936944444,-82.2593333333,Potential Chemical/Biological Spill,
8028,Nikiski gasoline spill,Nikiski Upper Cook Inlet Ak,2009-May-27,2009,60.6767,-151.415,Oil Spill,Collision
8025,Dredge Support Vessel Grounded,"Barataria Bay, LA",2009-May-23,2009,29.3836,-89.9925,Potential Oil Spill,
8026,Mystery Texas tarballs,South Texas coast,2009-May-22,2009,25.95,-97.1167,Oil Spill,
8024,Sunoco Oil Refinery Explosion and Fire,"Marcus Hook, Pennslyvania",2009-May-17,2009,39.8129722222,-75.4167777778,Chemical/Biological Spill,Fire / Explosion
8023,Stranded fumigant canisters,Washington Coast,2009-May-15,2009,47.9167,-124.676,Other,
8022,Mystery Slick,"W. Cameron Block 548, GOM",2009-May-14,2009,28.2882,-93.3702,Oil Spill,
8021,Economy Boat Store,"Wickliff, KY",2009-May-13,2009,36.967,-89.0981,Oil Spill,It is not known how the leak occured
8020,Hillcorp Energy Oil Spill,"Venice, LA",2009-May-12,2009,29.2344,-89.3922,Oil Spill,Pipeline Leak
8019,Chlorine Release,"Adjacent to Miss. River, Hahnville, LA",2009-May-08,2009,29.9767222222,-90.4094722222,Chemical/Biological Spill,
8018,Mystery Spill,GOM off Entrance to Calcasieu River,2009-May-04,2009,29.0833,-93.2333,Oil Spill,
8017,USS Chehalis Assessment,"Pago Pago, American Samoa",2009-May-03,2009,-14.275,-170.685,Other,Sunken Vessel
8016,Well Blowout,"Turtle Bay, LA",2009-Apr-30,2009,29.55,-90.1333,Oil Spill,Well Blowout
8014,Small diesel spill,"Lower Columbia River, WA",2009-Apr-26,2009,46.2617,-123.555,Oil Spill,Fire / Explosion
8013,Small plane crash,"Columbia River, Astoria, OR",2009-Apr-24,2009,46.19,-123.823,Potential Oil Spill,Plane Crash
8011,Leaking Flowline,"West Delta 28, LA",2009-Apr-22,2009,29.1339,-89.72,Oil Spill,Pipeline Leak
8010,Tanker Truck,"Revere, MA",2009-Apr-20,2009,45.4238,-71.003,Oil Spill,Tanker trailer over turned
8008,F/V Cowboy,"Vineyard Sound, MA",2009-Apr-18,2009,41.4317,-70.845,Potential Oil Spill,Grounding
8007,Kirby 29703 Incident,"Gulf of Mexico, Offshore",2009-Apr-18,2009,28.2086,-92.9519,Other,
8009,Ghost Net with Fur Seals,Oregon Coast,2009-Apr-17,2009,44.5417,-124.078,Other,
8006,Small mystery sheen,"Seattle, WA",2009-Apr-17,2009,47.6594,-122.377,"Oil Spill, Chemical/Biological Spill",
8004,F/V Renee Marie,"Offshore Queets River, WA",2009-Apr-14,2009,47.4502,-124.509,Oil Spill,Sunken Vessel
8005,F/V Dandy Bill,"San Mateo Bridge, San Francisco Bay, CA",2009-Apr-14,2009,37.5993,-122.214,Potential Oil Spill,Grounding
8003,USS Cleveland,"SE of Point Loma, CA",2009-Apr-03,2009,32.5983,-117.208,Oil Spill,Transfer
8002,Diversified Environmental Services,"Tampa Bay, FL",2009-Apr-01,2009,27.9295,-82.4281,Oil Spill,Collision
8001,"Mystery Slick, MM112","Mississippi River, Luling LA",2009-Mar-28,2009,29.9531,-90.3908,Oil Spill,Mystery Spill
8000,Redoubt Volcano eruption,"Cook Inlet, Alaska",2009-Mar-23,2009,60.5,-152.7,Potential Oil Spill,Volcano eruption
7999,NY Harbor #6 Fuel Spill,NY Harbor; Husdon R,2009-Mar-23,2009,40.6333,-74.0667,Oil Spill,Transfer
7998,Ammonia Tank Released,"Lime Tree Bay,  St. Croix",2009-Mar-21,2009,17.699,-64.7473,Chemical/Biological Spill,
7997,USS New Orleans,Strait of Hormuz,2009-Mar-20,2009,26.5177,56.1508,Oil Spill,Collision
7996,"Mystery Slick, Grand Isle Block 43","Gulf of Mexico, LA",2009-Mar-19,2009,29.0008,-89.8589,Oil Spill,Mystery Spill
7995,Zinc-Calcium Bromide Barge,"Mississippi River, West Memphis, AR",2009-Mar-18,2009,35.1167,-90.1833,Potential Chemical/Biological Spill,Sunken Vessel
7993,Tug-Barge collision Miss R,mm 107 upriver of New Orleans,2009-Mar-12,2009,29.932,-90.1808,Potential Oil Spill,
7991,MV Honor,"Wilmington, DE",2009-Mar-12,2009,39.718,-75.5197,Oil Spill,
7992,Galveston Bay UTV,Galveston Bay. Tx,2009-Mar-12,2009,29.342,-94.8185,Potential Oil Spill,Vessel hit under water object
7990,Plaquemine Train Derailment,"Plaquemine, LA",2009-Mar-07,2009,30.2932,-91.2387,Chemical/Biological Spill,Train Derailment
7989,Tanker Vessel SKS SATILLA,"GOM, off Galveston, TX",2009-Mar-06,2009,28.595,-93.8583,Potential Oil Spill,
7988,FV Mar-Gun,"St. George Isl, Pribilof Isls, Bering Sea, Alaska",2009-Mar-05,2009,56.6,-169.6,Potential Oil Spill,Grounding
7987,T/V Minerva Iris Grounding,"Galveston Bay, TX",2009-Mar-03,2009,29.4628,-94.851,Potential Oil Spill,
7985,Tanker Eltanin,Offshore LA/TX,2009-Mar-01,2009,29.4798,-93.8318,"Potential Oil Spill, Potential Chemical/Biological Spill",Grounding
7984,Wassaw Sound Yacht Grounding,"Off Wassaw Sound, GA",2009-Feb-28,2009,31.9316,-80.9629,Potential Oil Spill,Vessel in distress
7983,FV Icy Mist,"Akutan Isl., Eastern Aleutians, Alaska",2009-Feb-25,2009,54.2167,-165.967,Oil Spill,Grounding
7982,Yasa Golden Dardanelles Grounding,"GOM, off Galveston, TX",2009-Feb-21,2009,29.0869,-94.2511,Potential Oil Spill,Grounding
7981,Cygnet Ohio Pipeline spill,"Portage River, Ohio",2009-Feb-19,2009,41.2333,-83.65,Oil Spill,Pipeline Leak
7978,Sewage Sludge Spill,"Schuykill River, PA",2009-Feb-18,2009,39.89,-75.21,Other,Discharge / Dumping
7980,Gas/Condensate Release,GOM off Matagorda Island TX,2009-Feb-18,2009,27.96,-96.565,Oil Spill,Pipeline Leak
7979,Mystery Tarballs,"Santa Cruz, CA",2009-Feb-18,2009,36.9617,-122.023,Oil Spill,Possible natural seep
7976,Tank Failure and Oil Spill,"Near Vinton, LA",2009-Feb-15,2009,30.1462,-93.5988,Oil Spill,Leaking Tank
7975,Mystery Sheen West Delta Block 94,"Gulf of Mexico, Offshore LA",2009-Feb-14,2009,28.6017,-89.9161,Oil Spill,
7974,M/V DUNLIN ARROW,Dominican Republic,2009-Feb-13,2009,20.5117,-69.6933,Oil Spill,
7972,F/V Maranatha and Tug Mary L Collision,Tampa Bay FL,2009-Feb-12,2009,27.6583,-82.5917,Oil Spill,Collision
7973,"Bay Marchand Block 1, Oil Spill","Gulf of Mexico, LA",2009-Feb-12,2009,29.1031,-90.1589,Oil Spill,
7971,"South Pass Block 27, Oil Spill","GOM, Louisiana Coast",2009-Feb-12,2009,28.9772,-89.3158,Oil Spill,
7967,FV Beau Vin,"Wrightsville Beach, NC",2009-Feb-09,2009,33.8847,-77.8497,Oil Spill,
7970,"Mystery Spill, NRC 896969","Black Bay, LA",2009-Feb-09,2009,29.5331,-89.4847,Oil Spill,Mystery Spill
7966,Caterpillar Facility,"Joliet, IL (Des Plaines River)",2009-Feb-08,2009,41.4831,-88.1369,Oil Spill,Holding Tank Overflow
7965,USS Port Royal,"Pearl Harbor, HI",2009-Feb-06,2009,21.2967,-157.922,Other,Grounding
7964,South Marsh Block 243 Oil Spill,"Gulf of Mexico, LA",2009-Feb-01,2009,29.1989,-91.9186,Oil Spill,Mystery Spill
7963,Tri-Ram #2 Spill,"Portland, CT",2009-Jan-30,2009,41.5728,-72.6466,Oil Spill,Leaking Tank
7962,M/V Lituya,"Metlakatla, SE Alaska",2009-Jan-30,2009,55.1407,-131.568,Potential Oil Spill,Grounding
7961,PB Platform,"Gulf of Mexico, Offshore Lousiana",2009-Jan-28,2009,28.2056,-88.5,Oil Spill,Pipeline Leak
7959,FV Compadre,Offshore Louisiana,2009-Jan-26,2009,28.1889,-93.15,Potential Oil Spill,
7960,Tanker Truck Fuel Spill,"Leesburg, VA",2009-Jan-26,2009,39.1163888889,-77.5647222222,Oil Spill,Overturned Truck
7958,"West Cameron, Block 142","GOM, LA",2009-Jan-24,2009,29.4253,-93.0842,Oil Spill,Pipeline Leak
7957,Barge RTC 150,"Western Long Island Sound, NY",2009-Jan-22,2009,40.8483,-73.7563,Potential Oil Spill,Grounding
7955,M/V GENMAR PROGRESS,"Gulf of Mexico, Offshore Galveston, TX",2009-Jan-20,2009,28.5617,-94.04,Oil Spill,Leaking Tank
7954,Texas Petroleum Pipeline Spill,"SW of Kaplin, LA",2009-Jan-19,2009,29.8833,-92.4167,Oil Spill,Pipeline Leak
7956,CSL Argosy,"Annapolis, MD",2009-Jan-18,2009,38.9786666667,-76.4916111111,Potential Oil Spill,Grounding
7952,OSV V-ROVER Allision,"Gulf of Mexico, TX",2009-Jan-16,2009,27.3817,-94.6498,Potential Oil Spill,Collision
7950,M/V Monarch/Granite Pt.Platform,"Upper Cook Inlet, Alaska",2009-Jan-15,2009,60.9577,-115.333,"Oil Spill, Potential Oil Spill",Collision
7951,US Air Crash,"Hudson River, NY",2009-Jan-15,2009,40.7438888889,-73.9616666667,Potential Oil Spill,
7949,Main Pass 31/ near Breton Sound 48,LA,2009-Jan-13,2009,29.4822,-89.3597,Oil Spill,
7948,"Leaking Cason, Bay Marchand","Gulf of Mexico, LA  ",2009-Jan-11,2009,29.1061,-90.1508,Oil Spill,Leaking Cason (Repair Operations)
7947,"Mystery Release, South Timbalier 23","Gulf of Mexico, LA",2009-Jan-11,2009,29.0653,-90.0833,Oil Spill,
7946,Mystery Slick,"GOM, Off Belle Pass, LA",2009-Jan-08,2009,29.0203,-90.1706,Oil Spill,
7945,F/V American Way,"Aghiyuk Island,  W. Gulf of Alaska",2009-Jan-06,2009,56.2259,-156.769,Oil Spill,Grounding
7944,M/V TROJAN WARRIOR,"Peru, IL MM 223",2008-Dec-17,2008,41.3193,-89.1346,Potential Chemical/Biological Spill,Leaking Tank
7941,"Mystery Slick, Vermillion Block 29","Gulf of Mexico, off LA Coast",2008-Dec-12,2008,29.4733,-92.2361,Oil Spill,Mystery Spill
7942,Tug HOUSTON Tow Grounding,"ICW near E Matagorda Bay, TX",2008-Dec-12,2008,28.7625,-95.6552,Potential Oil Spill,Grounding
7943,F/V Santa Lucia,"Key West, FL",2008-Dec-12,2008,24.625,-81.83,Potential Oil Spill,Grounding
7940,Tug SABINE PASS Grounding,"Dickinson Bayou, TX",2008-Dec-11,2008,29.4667,-94.95,Potential Oil Spill,Grounding
7939,Platform A,"Santa Barbara Channel, CA",2008-Dec-08,2008,34.3319,-119.613,Oil Spill,Pump failure
7938,USS Abraham Lincoln,"Off San Clemente Island, CA",2008-Dec-05,2008,32.637,-118.372,Oil Spill,Discharge / Dumping
7937,Shrimp Boat Aground,"South Pass, Mississippi Delta, LA",2008-Dec-02,2008,28.98,-89.155,Potential Oil Spill,Grounding
7936,F/V Network,"Tillamook Bay, OR",2008-Nov-28,2008,45.5717,-123.962,Oil Spill,
7935,F/V MISS Rhianna,"Brazos Santiago Pass, TX",2008-Nov-24,2008,26.0653,-97.1583,Oil Spill,Grounding
7934,Tug St John,North of Florida Keys,2008-Nov-22,2008,25.375,-81.6633,Oil Spill,
7933,M/V Captain Gerry Oreron,"Gulf Intracoastal Waterway, Mobile, AL",2008-Nov-18,2008,30.2417,-88.3357,Potential Oil Spill,
7932,"Sabine Lake Well, Louisiana","East side of Sabine Lake, LA",2008-Nov-18,2008,29.8672,-93.7934,Oil Spill,
7931,"Flowline Incident, Near Dickerson Bayou","Chambers County, TX",2008-Nov-14,2008,29.4939,-94.9681,Oil Spill,Pipeline Leak
7930,"Sunken Vessel, M/V YOUNG GUNS","Hopedale Canal, South LA",2008-Nov-13,2008,29.8197,-89.6558,Potential Oil Spill,Sunken Vessel
7929,M/V SEA LION Grounding,"SW Pass Jetties, LA",2008-Nov-12,2008,28.9133,-89.4167,Potential Oil Spill,
7928,Tug Southern Cross,"Buzzards Bay, MA",2008-Nov-09,2008,41.535,-70.9748,Oil Spill,Sunken Vessel
7927,Grand Isle Block 54 Oil Spill,"Gulf of Mexico, LA",2008-Nov-08,2008,28.9269,-89.9447,Oil Spill,Casing Failure
7926,Kinder Morgan Ammonia Nitrate Spill,"Wilmington, NC",2008-Nov-07,2008,34.2283333333,-77.9475,Chemical/Biological Spill,Leaking Tank
7925,M/V MISTER JACOB Grounding,"GOM, Mississippi Delta, LA",2008-Nov-06,2008,28.8753,-89.038,Oil Spill,Grounding
7924,Wellhead Failure and Oil Spill,"Turtle Bay, South LA",2008-Nov-06,2008,29.5292,-90.1297,Oil Spill,"Wellhead failure, not Blowout"
7923,Charleston Tank Truck Accident,"Cooper River Charleston, SC",2008-Nov-04,2008,32.8917,-79.97,Oil Spill,truck accident over waterway
7922,"M/V JO SYCAMORE, TDI Release","Mississippi River, Geismer, LA",2008-Nov-04,2008,30.1857,-91.0121,Chemical/Biological Spill,
7921,"Floating, Sheening Drum","Mississippi River, New Orleans, LA",2008-Nov-03,2008,29.92,-90.14,Oil Spill,"Floating, Sheening Drum"
7920,LIL SUSAN S Grounding,"Bolivar, Texas",2008-Nov-02,2008,29.3723,-94.7837,Potential Oil Spill,Grounding
7919,Butylene Barge Aground,"Chocolate Bayou, TX",2008-Oct-31,2008,29.2165,-95.2134,Potential Chemical/Biological Spill,Grounding
7918,Petrolite Acrolein Spill,"Bradford, PA",2008-Oct-30,2008,41.9566666667,-78.6488888889,Chemical/Biological Spill,
7917,Louisiana mystery sheen,15 miles off Barataria Bay,2008-Oct-29,2008,29.0269,-89.82,Oil Spill,
7915,Tug Miss Janice,"New Orleans, LA",2008-Oct-28,2008,29.9172,-90.0793,Potential Oil Spill,Sunken Vessel
7914,F/V Lou ,Dry Tortugas,2008-Oct-28,2008,24.7233,-82.803,Potential Oil Spill,
7916,Mystery Sheen off of Barataria Bay,"Gulf of Mexico, LA",2008-Oct-28,2008,29.0008,-89.8586,Oil Spill,
7912,Lost AUV,"New London, CT",2008-Oct-24,2008,41.3069,-72.0811,Other,
7913,"Mystery Slick, S of White Lake","Gulf of Mexico, LA",2008-Oct-24,2008,29.5333,-92.4183,Oil Spill,Mystery Spill
7911,F/V Katmai,100 mi w of Adak Is in Amchitka Pass,2008-Oct-22,2008,51.9333,-179.55,Potential Oil Spill,"Mechanical failure, taking on water"
7910,"Grounded Barge, Cumene","ICW near Pelican Cut, Galveston, TX",2008-Oct-19,2008,29.3547,-94.8072,Potential Chemical/Biological Spill,Grounding
7909,"Mystery Slick, Near GI-47c","GOM, Louisiana Coast",2008-Oct-18,2008,28.9977,-89.8747,Oil Spill,Mystery Spill
7908,Mystery Spill south of Marsh Island,Lousiana,2008-Oct-17,2008,28.995,-91.8772,Oil Spill,
7907,Two Barges Adrift,Leeward Islands - West Indies,2008-Oct-16,2008,16.5633,-62.4433,Potential Oil Spill,Bad weather
7906,"Mystery Sheen, off Timbalier Bay","GOM, Louisiana Coast",2008-Oct-11,2008,28.9455,-90.3658,Oil Spill,Mystery Slick (Sheen)
7905,PCS Nitrogen,"Geismar, LA",2008-Oct-09,2008,30.2181,-91.0533,Chemical/Biological Spill,Leaking Tank
7903,Tug Twilite,"Wood River, SW Alaska",2008-Oct-08,2008,59.27,-158.583,Potential Oil Spill,Grounding
7904,"Grounded Barge, MM329 ICW","Gilchrist, Texas",2008-Oct-08,2008,29.5185,-94.5057,Potential Oil Spill,Grounding
7902,Fuel Oil and Urea Incident,"Mississippi River, New Orleans, LA",2008-Oct-05,2008,30.0533,-90.51,"Oil Spill, Chemical/Biological Spill",Transfer
7901,"Mystery Spill, Near Delta Wildlife Refuge","Mississippi Delta, LA",2008-Oct-04,2008,29.3547,-89.2357,Oil Spill,Mystery Spill
7900,Mystery Sheen: Marsh I. Block 30,Offshore Louisiana.,2008-Oct-03,2008,28.2989,-92.0111,Oil Spill,Mystery Spill
7898,M/V Nunaniq,"Mekoryuk village beach, Nunivak Isl., AK ",2008-Oct-02,2008,60.3887,-166.185,Oil Spill,Grounding
7899,Golf Course Fire,Honolulu,2008-Oct-02,2008,21.345,-157.925,Chemical/Biological Spill,Fire / Explosion
7896,Catfish Lake Condensate Spill,"Golden Medow, LA",2008-Sep-26,2008,29.3677,-90.3459,Oil Spill,Discharge / Dumping
7897,R/V Lake Explorer II,"Norfolk, VA",2008-Sep-23,2008,36.8480555556,-76.3036111111,Oil Spill,Discharge / Dumping
7895,NOAA Ship Ron Brown Battery Fire,"Charleston, SC",2008-Sep-23,2008,32.8464,-79.9353,Other,Fire / Explosion
7892,Mystery Slick Gulf of Mexico,"75 nm south of Marsh I, La",2008-Sep-20,2008,28.2267,-92.0117,Oil Spill,
7891,ISTOP Anomoly Report off ,"Newfoundland, Canada",2008-Sep-19,2008,45.5086,-53.2933,Potential Oil Spill,
7890,Grand Bayou Blue Well Blowout,"Near Galliano, LA",2008-Sep-17,2008,29.4669,-90.3817,Oil Spill,Well Blowout
7889,Hurricane Ike: Mystery Sheen ,Ship Shoal Block 154,2008-Sep-16,2008,28.6807,-91.2107,Oil Spill,
7888,F/V Miss Michelle,"Entrance to Grays Harbor, WA",2008-Sep-15,2008,46.9128,-124.168,Potential Oil Spill,vessel sinking
7887,San Juan Harbor diesel pipeline.,"San Juan Harbor, Puerto Rico",2008-Sep-13,2008,18.4278,-66.1075,Oil Spill,Pipeline Leak
7894,Hurricane Ike:  Response Information,Louisiana,2008-Sep-13,2008,29.9,-93.2833,Other,Hurricane Prep/Response
7893,Hurricane Ike: Response Information,"Port Arthur, TX",2008-Sep-13,2008,29.8667,-93.9,Other,Hurricane Prep/Response
7886,Hurricane Ike:  M/V ANTALINA,"SE of Galveston, TX",2008-Sep-12,2008,28.0517,-93.195,Potential Oil Spill,
7884,Hurricane Ike:  Response Information,"Houston/Galveston, TX",2008-Sep-07,2008,29.3833,-94.8,Other,Hurricane Ike
7883,Hurricane Gustav - Well Head,"Barataria Bay, LA",2008-Sep-03,2008,29.4233,-89.9413,Oil Spill,Well Blowout
7882,Hurricane Gustav - Tank Battery,"NW Breton Sound, LA",2008-Sep-03,2008,29.6684,-89.4397,Oil Spill,Leaking Tank
7881,Hurricane Gustav - Response Information,Louisiana Coastal Zone,2008-Aug-31,2008,29.2333,-90.0333,Other,
7879,Red Flag Barge Allision ,"Bolivar Roads, Bolivar Peninsula, TX",2008-Aug-28,2008,29.4104,-94.7374,Potential Oil Spill,Collision
7880,Bayer Cropscience,"Institute, WV",2008-Aug-28,2008,38.3864,-81.7986,Chemical/Biological Spill,Fire / Explosion
7877,Oil Spill Reported,"West Cote Blanche Bay, LA",2008-Aug-24,2008,29.6828,-91.8,Oil Spill,Equipment Failure
7878,60 Gallon Lube Oil Spill,"Offshore LA, Gulf of Mexico",2008-Aug-24,2008,27.6256,-90.4419,Oil Spill,Seal Failure in Engine
7876,Portland Yacht Club Spill,Columbia River,2008-Aug-19,2008,45.6007,-122.651,Oil Spill,Discharge / Dumping
7875,Tropical Storm Fay,Florida,2008-Aug-19,2008,27.5667,-81,Other,
7874,L/C Saltery Provider,"Saltery Cove, Clarence Strait, SE Alaska",2008-Aug-18,2008,55.402,-132.331,Oil Spill,
7872,"Platform Fire, HI 552","East Breaks, Gulf of Mexico",2008-Aug-16,2008,28,-94.125,Potential Oil Spill,
7871,M/V Island Intrepid,"Miami, FL",2008-Aug-14,2008,25.7646,-80.1336,Potential Oil Spill,Grounding
7873,M/V JACINTO,"Gulf of Mexico, LA",2008-Aug-11,2008,29.2833,-93.9167,Oil Spill,
7870,Dickerson Bayou-Canal Oil Spill,"Dickerson Bay, Texas",2008-Aug-08,2008,29.474,-94.9548,Oil Spill,Pipeline Leak
7869,F/V Northern Mariner,"Prince William Sd., Fleming Isl., Alaska",2008-Aug-07,2008,60.1763,-148.003,Potential Oil Spill,Grounding
7868,Mystery Sheen,"Eugene Island, Block 10, LA",2008-Aug-06,2008,29.3962,-91.7768,Oil Spill,
7867,Grounded Jackup vessel,Offshore of Belle Pass,2008-Aug-04,2008,29.0893,-90.2278,Potential Oil Spill,
7866,Tug Canal Deluge Fire,"Buzzard's Bay, MA",2008-Aug-01,2008,41.5267,-70.8547,Potential Oil Spill,Fire / Explosion
7865,Sunken Tugs,"Schuylkill River, Philadelphia, PA",2008-Jul-29,2008,39.8951,-75.1989,Oil Spill,Sunken Vessel
7863,West Delta 55,"Mississippi River Delta, LA",2008-Jul-25,2008,29.0433,-89.4233,Oil Spill,
7864,Grounded F/V Elvira off La.,"15 nm SW of Marsh I., La.",2008-Jul-25,2008,29.3333,-92.1667,Potential Oil Spill,Grounding
7862,Crowley Barge 180-1,"Togiak, AK",2008-Jul-23,2008,59.05,-160.333,Potential Oil Spill,Grounding
7861,Barge DM932,"New Orleans, LA",2008-Jul-23,2008,29.9125,-90.0917,Oil Spill,
7857,Jet Collision,Guam,2008-Jul-21,2008,13.4375,144.751388889,Oil Spill,Collision
7858,"Vermillion Block 272, Unknown Sheen",Offshore Louisiana,2008-Jul-20,2008,28.4714,-92.1667,Oil Spill,
7859,Mystery Spill ,Off Louisiana Coast,2008-Jul-18,2008,28.4435,-91.6778,Oil Spill,
7855,LST 1166,Columbia River,2008-Jul-17,2008,46.1316666667,-123.022222222,"Potential Oil Spill, Potential Chemical/Biological Spill",Derelict vessel
7854,Garbage Ashore,Manistee Michigan,2008-Jul-15,2008,44.2383,-86.325,Other,
7856,Mystery Sheen,"NW of Oahu, HI",2008-Jul-15,2008,22.5,-158.3,Oil Spill,Mystery Spill
7853,"M/V VENUSGAS, Vinyl Chloride Release","Ingleside, TX",2008-Jul-11,2008,27.87,-97.24,Chemical/Biological Spill,Leak in Compressor Rm
7860,"Mystery Sheen, West Delta 90",Gulf of Mexico,2008-Jul-08,2008,28.9362,-89.6562,Oil Spill,
7852,Spirit of Glacier Bay,"Glacier Bay, northern extremity",2008-Jul-07,2008,59.0567,-137.035,Potential Oil Spill,Grounding
7851,Fireworks Wash Ashore,"Jones Beach, NY",2008-Jul-05,2008,40.5917,-73.5111,Other,Potential illegal dumping
7848,F/V SUSAN II,"Manasquan, NJ",2008-Jul-02,2008,40.107,-74.0242,Oil Spill,
7850,T/V FAIRCHEM FILLY Grounding,"Galveston, TX",2008-Jul-02,2008,29.3562,-94.7777,Potential Oil Spill,Grounding
7846,Unknown Sheen,Off LA Coast,2008-Jun-30,2008,28.8853,-90.8017,Oil Spill,
7847,"Pipeline Leak, West Cameron Block 20","Gulf of Mexico, LA",2008-Jun-30,2008,29.703,-93.6138,Oil Spill,Pipeline Leak
7844,Barge GULFSTREAM,"Bolivar Anchorage, Galveston, TX",2008-Jun-28,2008,29.3468,-94.7668,Potential Oil Spill,Grounding
7845,"Mystery Sheen, Ship Shoal 182","Gulf of Mexico, Offshore LA",2008-Jun-27,2008,28.5967,-90.9794,Oil Spill,
7843,"Mystery Slick, NRC 875386","Gulf of Mexico, off Grand Isle, LA",2008-Jun-26,2008,29.26,-89.8783,Oil Spill,
7842,M/V Mark L Barge Tow Grounded,"Daulphin Island, AL",2008-Jun-24,2008,30.2864,-88.1353,Potential Oil Spill,Grounding
7841,M/V RAMLAH Oil Spill,"LOOP, Gulf of Mexico, LA",2008-Jun-23,2008,28.8875,-89.9997,Oil Spill,Transfer
7840,F/V Stacey Lynn,"Forest River, Savannah, Ga",2008-Jun-20,2008,31.935,-81.155,Oil Spill,Sunken Vessel
7839,NSTAR Mineral Oil Release,"Brighton, MA",2008-Jun-19,2008,42.3292,-71.1139,Oil Spill,Pipeline Leak
7837,Mystery tarballs,"Alameda, CA",2008-Jun-17,2008,37.7633,-122.273,Oil Spill,Mystery Spill
7835,M/T Ioannis 1,NW Washington,2008-Jun-14,2008,47.9583,-125.31,Other,Vessel adrift while engines off for repair
7833,Ship Shoal Block 7 Pipeline Release,"Gulf of Mexico, LA",2008-Jun-10,2008,29.1878,-91.1786,Oil Spill,Pipeline Leak
7832,Sperm Whale Grounding,"Port Aransas, Texas",2008-Jun-10,2008,27.81,-97.07,Other,Grounded Whale
7830,Jackup Rig Spud search,Entrance to Delaware Bay,2008-Jun-09,2008,38.688,-74.7717,Other,Jackup rig hit by wave
7829,"ZnBr2 Spill, Green Canyon Block 338","Gulf of Mexico, Offshore LA",2008-Jun-07,2008,27.6247,-90.4408,Chemical/Biological Spill,Leaking Tank
7827,"Post-Hurricane Katrina Grand Isle 47C, ","Gulf of Mexico, LA",2008-Jun-03,2008,28.9502,-90.0167,Oil Spill,
7826,Universal Studios Fire,"Los Angeles, CA",2008-Jun-01,2008,34.1404,-118.349,"Potential Chemical/Biological Spill, Other",Fire / Explosion
7825,Block 237 Platform,"Eugene Island, LA",2008-May-29,2008,28.5331,-91.4956,Oil Spill,
7824,HillCorp Tank Battery 25,"Timbalier Bay, LA",2008-May-28,2008,29.0833,-90.45,Oil Spill,
7823,Ammonia Release,"Searsport, ME",2008-May-25,2008,44.4583,-68.9267,Chemical/Biological Spill,Leaking Tank
7822,M/V Dog Fish,"MP Block 72, Mississippi Delta, LA",2008-May-25,2008,29.2672,-88.9377,Oil Spill,Allied with unknown submerged object.
7821,Breton Sound Mystery Sheen #2,"Breton Sound, LA",2008-May-24,2008,29.4157,-89.0811,Oil Spill,
7820,Breton Sound Mystery Sheen,"Breton Sound, LA",2008-May-23,2008,29.5322,-89.2678,Oil Spill,
7819,KMTEX Pyrolysis Gas,"Port Arthur, TX",2008-May-21,2008,29.9,-93.93,Oil Spill,
7818,F/V Blue Sea,"Point Judith, RI",2008-May-19,2008,41.36,-71.48,"Oil Spill, Potential Oil Spill",
7817,F/V King Fisher,"Southwest Pass, Vermillion Bay, LA",2008-May-15,2008,29.6108,-92.0088,Oil Spill,Sunken Vessel
7816,Tesoro gasoline spill,"Martinez, CA",2008-May-14,2008,38,-122,Oil Spill,Pipeline Leak
7814,Barge Energy 11102 ,"Bolivar Roads, Galveston, TX",2008-May-09,2008,29.3378,-94.7653,Potential Oil Spill,Grounding
7815,Vessel aground Urunao Beach,Guam,2008-May-09,2008,13.6151944444,144.886222222,Other,
7813,Kewalo Basin F/V grounding,Honolulu ,2008-May-02,2008,21.29,-157.86,Potential Oil Spill,Grounding
7812,M/V Anna Maersk,"220 NM South of Dutch Harbor, AK",2008-May-01,2008,49.7,-166.952,Other,
7811,Mystery Sheen,"South Timbalier Island Block 130, Lousiana",2008-Apr-24,2008,28.6661,-90.1558,Oil Spill,
7809,TUG DOROTHY ANN,"Marquette, MI",2008-Apr-22,2008,46.534,-87.3868,"Oil Spill, Potential Oil Spill",Grounding
7810,Mystery Sheen,"Cape Canaveral, FL",2008-Apr-22,2008,28.8833,-79.4,Potential Oil Spill,Mystery Sheen
7808,Lake Long Pipeline Spill,"Houma, LA ",2008-Apr-18,2008,29.5666,-90.55,Oil Spill,Pipeline Leak
7805,Tanker Truck Spill,"Chester River, MD",2008-Apr-15,2008,39.377,-75.809,Oil Spill,Leaking Tank
7806,Mystery Tarballs,"Ritidian Pt., Guam",2008-Apr-15,2008,13.6542,144.863,Oil Spill,
7807,Bayou Couba Oil Spill,"Salvador State WMA, Louisiana",2008-Apr-14,2008,28.8,-90.17,Oil Spill,Pipeline Leak
7803,M/V MEVLUT DOVEN,"Cape Henry, VA.",2008-Apr-04,2008,35.2,-71.3,Oil Spill,
7802,Sunken Tug,Off Alabama Coast,2008-Apr-04,2008,29.0533,-86.6917,Potential Oil Spill,
7801,Tug Yankee and Barge DBL151,"Tampa Bay, FL",2008-Apr-02,2008,27.6065,-82.8153,Potential Oil Spill,Grounding
7799,Corroded compressed gas cylinder,"Kauai, HI",2008-Mar-28,2008,22.07,-159.32,Potential Chemical/Biological Spill,Corroded compressed gas cylinder
7797,F/V Miss Sonya,"2 mi E of Gloucester, MA",2008-Mar-25,2008,42.545,-70.68,Oil Spill,
7798,Sodium Hydroxide Tank release,"South Seattle, WA",2008-Mar-25,2008,47.68,-122.32,Chemical/Biological Spill,Leaking Tank
7796,F/V Alaska Ranger,"120nm W. of Unalaska Is., Bering Sea, AK",2008-Mar-23,2008,53.8817,-169.983,Potential Oil Spill,Rudder fell off causing water ingress
7795,Mystery sheen 2,"Barbers Point, HI",2008-Mar-21,2008,21.2525,-158.069,Oil Spill,
7793,Lake Palourde Orphan Well,"Morgan City, LA",2008-Mar-20,2008,29.7564,-91.0997,Oil Spill,
7792,Fluosilicic Acid Release,"Braithwaite, LA",2008-Mar-17,2008,29.874,-89.948,Chemical/Biological Spill,Leaking Tank
7791,F/V MISS LISA,"Rockerfeller Refuge, LA",2008-Mar-15,2008,29.5933,-92.6633,Potential Oil Spill,Grounding
7790,M/V JILLIAN MORRISON ,Gulf of Mexico,2008-Mar-12,2008,29.2533,-92.0425,Potential Oil Spill,Sunken Vessel
7789,Dolphin Mortality Event,"Galveston, TX",2008-Mar-10,2008,29.4651,-94.6069,Other,Dead dolphins
7788,Pipeline Failure,"Bayou Chaland, Grand Terre Island, LA",2008-Mar-09,2008,29.3091,-89.743,Oil Spill,
7787,Nitrous Oxide Release,"Ferndale, WA",2008-Mar-05,2008,48.9167,-122.7,Chemical/Biological Spill,Equipment failure
7786,"Grounded Tanker, M/V EOS","Corpus Christi, TX",2008-Mar-02,2008,29.83,-97.1382,Potential Oil Spill,Grounding
7785,"Sulfur Dioxide Release,","Pascagoula, MS",2008-Mar-02,2008,30.3167,-88.475,Chemical/Biological Spill,Equipment Failure
7784,Manilia Villiage,"Barartaria Bay, LA",2008-Mar-02,2008,29.5105,-89.9864,Potential Oil Spill,"Planning for Barge Movement, Potential Spill"
7783,Grand Isle 47C,"Near SE Louisiana Coast, Gulf of Mexico",2008-Mar-02,2008,28.9839,-90.0667,Oil Spill,Discharge / Dumping
7781,Mystery Sheen,"Barbers Point, HI",2008-Feb-23,2008,21.33,-158.12,Oil Spill,Mystery Spill
7780,Chemical Release Port of Seattle,"Terminal 5, Seattle, WA",2008-Feb-22,2008,47.578,-122.361,Chemical/Biological Spill,Leaking Tank
7779,S/V Sadie,"Central Coast, CA",2008-Feb-21,2008,36.015,-121.598,"Potential Oil Spill, Other",Search & Rescue
7778,F/V Isabelle,"Resurrection Bay, Seward, Alaska",2008-Feb-20,2008,60.1166,-140.434,Oil Spill,Discharge / Dumping
7782,US Satellite,Pacific Ocean,2008-Feb-19,2008,20,-170,Potential Chemical/Biological Spill,satellite falling out of orbit
7777,F/V Westward,"Prince of Wales Isl., SE Alaska",2008-Feb-18,2008,55.5808,-133.277,Oil Spill,Grounding
7776,OSV GRADY FAGAN Allision,"GOM, South of FGBNMS",2008-Feb-16,2008,27.3099,-93.5691,Oil Spill,Collision
7775,Well Blowout,"South Pelto, LA",2008-Feb-15,2008,28.9481,-90.7236,Oil Spill,
7774,Mystery Noxious Odor,South Central Indiana,2008-Feb-14,2008,38.73,-86.47,Other,Unknown
7773,Gold Coast,"Nanticoke River, Maryland",2008-Feb-13,2008,38.31,-75.9,Potential Oil Spill,Grounding
7772,M/V Centaurus Leader,"Brunswick, GA",2008-Feb-13,2008,31.1115,-81.4697,Potential Oil Spill,Grounding
7770,Lake Raccourci Well #2,"Terrebone Parish, LA",2008-Feb-12,2008,29.1911,-90.3431,Oil Spill,Leaking wellhead
7769,LNG Catalunya Spirit,"37 NM East of Provincetown, MA",2008-Feb-11,2008,42.1398,-69.3642,Potential Oil Spill,Pipeline Leak
7764,DRILL -- Southeast Florida PREP Exercise 2008,"Port Everglades, FL",2008-Feb-11,2008,26.0917,-80.1233,Oil Spill,
7768,Pt. Judith Anhydrous Ammonia Release,"Pt. Judith, RI",2008-Feb-10,2008,41.3799,-71.5135,Chemical/Biological Spill,Machinery leak
7767,Lost Container,Hawaii,2008-Feb-05,2008,21.3048055556,-157.858611111,Potential Chemical/Biological Spill,Container afloat
7765,F/V Allegura,Off Jupiter Inlet Florida,2008-Feb-04,2008,26.9105,-79.9862,Oil Spill,Sunken Vessel
7766,Sea Lion Cage Adrift,"Seattle, WA",2008-Feb-03,2008,47.67,-122.41,Other,
7763,M/V Supe,"off Zorritos, Peru",2008-Feb-01,2008,-3.63333,-80.7667,Oil Spill,Fire / Explosion
7762,Mystery Tarball Incident,"Pacifica, CA",2008-Jan-29,2008,37.5272,-122.518,Potential Oil Spill,Natural seep
7761,MV MSC JAPAN,"Chesapeake Bay, Maryland",2008-Jan-28,2008,39.04,-76.4,Potential Oil Spill,
7760,Tug Accue IV ,"Calcasieu, LA",2008-Jan-28,2008,30.0683,-93.27,Potential Oil Spill,Sunken Vessel
7759,USNS Flint,"Off Oahu, HI",2008-Jan-24,2008,20.5707,-159.256,Oil Spill,
7757,Vessel Collision,"Newark Bay, NJ",2008-Jan-24,2008,40.6644,-74.1409,Oil Spill,Collision
7758,USNS Flint,"Off Oahu, HI",2008-Jan-24,2008,20.5707,-159.256,Oil Spill,Pipeline Leak
7756,F/V Anna Marie,"Copalis Beach, WA",2008-Jan-23,2008,47.1265,-124.188,Potential Oil Spill,Grounding
7755,Tug Joseph Foss,"Cape Meares, OR",2008-Jan-23,2008,45.4617,-124.05,Potential Oil Spill,
7754,F/V Haeshin,"Gray's Harbor, WA",2008-Jan-21,2008,46.905,-124.133,Potential Oil Spill,Sunken Vessel
7753,Breton Sound 53 Well Incident,Gulf of Mexico,2008-Jan-19,2008,29.4256,-89.1386,Oil Spill,Collision
7752,Barge 10356 Incident,"Mississippi River near Plaquemine, LA",2008-Jan-17,2008,30.293,-91.228,Chemical/Biological Spill,
7751,M/V Ever Radiant,"Savannah River, Ga",2008-Jan-16,2008,32.25,-80.8083,Potential Oil Spill,Grounding
7750,Calcium Chloride Barge,"Baton Rouge, LA",2008-Jan-14,2008,30.1947,-91.0186,Chemical/Biological Spill,
7749,Deer Island Oil Spill,"Terrebonne Parish, LA",2008-Jan-14,2008,29.4733,-91.2047,Oil Spill,
7747,Tarballs Ashore,"Ocean Shores, WA",2008-Jan-12,2008,47.04,-124.171,Oil Spill,
7748,Oil Well Allision and Release,"West Cote Blanche Bay, LA",2008-Jan-11,2008,29.6947,-91.8128,Oil Spill,Collision
7745,Marina Diesel Spill,"Westport, WA",2008-Jan-09,2008,46.9,-124.1,Oil Spill,Leaking truck
7746,Missing Body Search,"Dauphin Island, AL",2008-Jan-09,2008,30.291,-88.13,Other,
7744,Epichlorhydrin Rail Car Incident,"Port Beinville, MS",2008-Jan-07,2008,30.41,-88.84,Chemical/Biological Spill,Leaking Tank
7741,Vermilion Block 16,"Offshore, LA",2008-Jan-03,2008,29.4,-92.2,Oil Spill,
7742,M/V Sun Venus,"Offshore, HI",2008-Jan-03,2008,20,-159.55,Potential Oil Spill,disabled vessel
7743,Leaking Container,"North Charleston, SC",2008-Jan-03,2008,32.8,-79.9,Chemical/Biological Spill,Leaking Shipping Container
7740,NY/NJ Mystery Spill,NY/NJ Harbor,2007-Dec-30,2007,40.6528,-74.1522,Oil Spill,Mystery Spill
7739,Train derailment,"Saginaw, MI",2007-Dec-27,2007,43.436,-83.916,Potential Chemical/Biological Spill,Train Derailment
7738,GSA Diesel Fuel Spill,"Washington, DC",2007-Dec-22,2007,38.882,-77.031,Oil Spill,Transfer
7737,"Lost Drum, Methanol","South Pass, Mississippi Delta, LA",2007-Dec-21,2007,28.97,-89.2453,Chemical/Biological Spill,Drum blew off platform.
7736,F/V Silver Wings,Gulf of Mexico,2007-Dec-21,2007,27.9833,-91.8483,Oil Spill,Sunken Vessel
7735,Phoenix Well Blowout,"Belle Pass, Iberia Parish, LA",2007-Dec-18,2007,29.5222,-91.4083,Oil Spill,Well Blowout
7734,ALGO NORTH,"Toledo, Ohio",2007-Dec-14,2007,41.6915,-83.4687,Oil Spill,Collision
7732,Ferro Corp. chemical plant release,"Logan, NJ",2007-Dec-12,2007,39.82,-75.3633,Chemical/Biological Spill,Discharge / Dumping
7731,M/V Lady Marie,"Breton Sound, LA",2007-Dec-11,2007,29.6615,-89.1785,Potential Oil Spill,Collision
7730,F/V Bowfin,"Tacoma, WA",2007-Dec-11,2007,47.2833,-122.377,Oil Spill,Transfer
7728,Harvest Oil &amp; Gas facility,"Atchafalaya Bay, LA",2007-Dec-10,2007,29.4146,-91.3894,Oil Spill,
7729,Burning Fishing Vessel,"Tillamook, OR",2007-Dec-10,2007,45.222,-124.327,Potential Oil Spill,Fire / Explosion
7727,Floating tanks,"80 miles off Terrebone Bay, LA",2007-Dec-08,2007,27.735,-90.7233,Other,
7726,Tug Ocean 1,"Port Everglades, FL",2007-Dec-08,2007,26.0483,-80.1153,Potential Oil Spill,Grounding
7733,MT Hebei Spirit,Korea,2007-Dec-07,2007,36.8322,126.041,Oil Spill,Collision
7725,BP/ARCO Tank Farm,"Harbor Island, Seattle, WA",2007-Dec-05,2007,47.582,-122.357,Potential Oil Spill,Heavy rain displaced floating tank top
7724,Red Pass Pipeline Release,"Mississippi Delta, LA",2007-Dec-04,2007,29.225,-89.3958,Oil Spill,Pipeline Leak
7723,"DELTA BENGAL, Abandoned Pipeline ","Little Lake, LA",2007-Dec-03,2007,29.54,-90.1672,Oil Spill,Drill Rig in tow struck submerged object.
7722,Barge Tamara V,"Guam, Pacific Ocean",2007-Dec-03,2007,13.4831,144.74,Potential Oil Spill,Grounding
7720,Tug Deschutes,"Snake River, WA",2007-Dec-02,2007,46.2477,-118.962,Potential Oil Spill,Grounding
7719,M/V Ceci,"Winyah Bay, SC",2007-Dec-01,2007,32.2009,-79.1652,Oil Spill,Sunken Vessel
7718,MSC KOREA,"Savannah River, Ga",2007-Nov-27,2007,32.1,-81,Potential Oil Spill,Grounding
7717,Evergreen Timber House Boat,"George Inlet, SE Alaska",2007-Nov-23,2007,55.455,-131.478,Potential Oil Spill,Grounding
7716,Tarball Mystery Spill,"So Shore Long Island, NY",2007-Nov-22,2007,40.5833,-73.6767,Oil Spill,
7715,Port Heiden Dump Site,"Alaska Peninsula, Bering Sea side",2007-Nov-21,2007,56.9164,-158.684,"Oil Spill, Potential Chemical/Biological Spill",residual oil in old drums
7714,"Sunken Fishing Vessel, MAMA JUNE",Gulf of Mexico,2007-Nov-17,2007,28.184,-92.6863,Oil Spill,Sunken Vessel
7713,M/V Seaboard Rio Haina,"Jacksonville, FL",2007-Nov-17,2007,30.6775,-81.4644,Oil Spill,Discharge / Dumping
7712,Platform Hondo,"5 nm off Santa Barbara, CA",2007-Nov-16,2007,34.4,-120.117,Oil Spill,
7711,Tampa Bay Pipeline Anhydrous Ammonia Release,"Riverview, east of Tampa, FL",2007-Nov-12,2007,27.8683,-82.3264,Chemical/Biological Spill,Pipeline Leak
7709,Spirit of Nantucket,"Intracoastal Waterway, VA",2007-Nov-08,2007,36.665,-76.0614,Oil Spill,Grounding
7708,M/V Cosco Busan,"San Francisco Bay, CA",2007-Nov-07,2007,37.8005,-122.372,Oil Spill,Bridge allision
7710,Liaison - M/V Cosco Busan,"San Francisco, CA",2007-Nov-07,2007,37.8008,-122.376,Oil Spill,Bridge allision
7707,Harvest Oil platform,"Breton Sound, LA",2007-Nov-05,2007,29.5392,-89.2622,Oil Spill,
7706,Sabine Bank pipeline leak,"Sabine Bank, TX",2007-Nov-05,2007,29.5417,-94.1417,Oil Spill,Pipeline Leak
7704,M/V SCF TOMSK,Dominican Republic,2007-Oct-29,2007,18.44,-69.2517,"Potential Oil Spill, Potential Chemical/Biological Spill",
7703,Sunken Fishing Vessel LA7516EG,"Dead Women Pass, Mississippi Delta, LA",2007-Oct-26,2007,29.2552,-89.1155,Oil Spill,Sunken Vessel
7702,Sterling Exploration Pipeline Discharge,"Jefferson Co., TX",2007-Oct-23,2007,29.6233,-94.1968,Oil Spill,Pipeline Leak
7701,F/V Miss Cindy II,"10 miles Off Cumberland Island, Ga",2007-Oct-12,2007,30.8967,-81.305,Oil Spill,Sunken Vessel
7700,Fishing vessel aground,"Barnegat Light, NJ",2007-Oct-11,2007,39.7667,-74.1,Potential Oil Spill,Grounding
7699,T/V Tigani,"Delaware River, Paulsboro, NJ",2007-Oct-10,2007,39.8545,-75.2276,Oil Spill,Discharge / Dumping
7698,Barge OB6,"Ugashik Bay, AK",2007-Oct-05,2007,57.5733,-157.595,Potential Oil Spill,Grounding
7697,Bayou Sorrel Oil Spill,"Atchafalaya Basin, LA",2007-Oct-01,2007,30.1647,-91.3896,Oil Spill,
7696,Kivalina Village,NW Alaska,2007-Sep-13,2007,67.7267,-164.536,Potential Oil Spill,Only  a potential leak
7695,Cotton Patch Bayou Acid Release,"Pasadena, Harris County, Texas",2007-Sep-06,2007,29.7336,-95.1981,Chemical/Biological Spill,Discharge / Dumping
7693,Sweet Dreams,"Wrightsville Beach, NC",2007-Sep-04,2007,34.1797,-77.8032,Oil Spill,Grounding
7694,Barataria Bay Mystery Slick,"Inside Barataria Bay, LA",2007-Sep-04,2007,29.2819,-89.9522,Oil Spill,
7692,F/V PAPA GEORGE,"Off Willapa Bay, OR",2007-Sep-03,2007,46.4675,-124.209,Oil Spill,Sunken Vessel
7691,F/V Secret,"6 miles south of Umpqua R, OR",2007-Sep-02,2007,43.5698,-124.287,Potential Oil Spill,Sunken Vessel
7690,USS New Orleans,"Off San Clemente Island, CA",2007-Aug-31,2007,32.5667,-118.6,Oil Spill,Transfer
7689,Mystery oil slick-south coast of PR,"Guanica-Bahia de Guayanilla, Puerto Rico",2007-Aug-30,2007,17.9325,-66.8438,Oil Spill,Mystery Spill
7688,Acid Fumes During Vessel Cleaning,"Mississippi River near St. Rose, LA",2007-Aug-23,2007,29.9417,-90.3083,Potential Chemical/Biological Spill,Vapor fumes from cleaning operation.
7687,Offshore mystery sheens,"San Diego, CA",2007-Aug-21,2007,32.7667,-117.817,Oil Spill,Mystery Spill
7686,F/V Aldebaran,"Revillagigedo Channel, AK",2007-Aug-18,2007,55.2438,-131.438,Oil Spill,Grounding
7685,Diflouro Ethylene Tank Leak,"Charleston, SC",2007-Aug-15,2007,32.9,-79.9583,Chemical/Biological Spill,Leaking Tank
7684,Meterhouse Canal Oil Spill,"Bateman Lake, Atchafalya Basin, LA",2007-Aug-07,2007,29.6472,-91.2389,Oil Spill,Pipeline Leak
7683,Mystery Spill,"Neah Bay, WA",2007-Aug-05,2007,48.3835,-124.742,Oil Spill,Mystery Spill
7682,F/V Rough Seas,"Little Egg Inlet, NJ",2007-Aug-01,2007,39.485,-74.2917,Oil Spill,Grounding
7680,MP 21 Platform Allision and Oil Spill,"Breton Sound GOM, LA",2007-Jul-29,2007,29.5642,-89.3358,Oil Spill,Collision
7681,Mystery spill,"Green Canyon Block 168, Offshore, LA",2007-Jul-29,2007,27.7797,-90.1767,Oil Spill,
7678,M/V Pegasus,"Sunshine Cove, AK",2007-Jul-25,2007,58.6035,-134.926,Potential Oil Spill,
7679,F/V Nordic Viking,"Prince William Sound, AK",2007-Jul-22,2007,60.7137,-146.194,Oil Spill,Grounding
7677,F/V Christine Ann,"Crystal River, FL",2007-Jul-20,2007,28.9333,-82.8167,Oil Spill,Sunken Vessel
7676,Mystery sheen,"Off Tatoosh Island, WA",2007-Jul-14,2007,48.4039,-124.791,Oil Spill,Mystery Spill
7675,Grounded vessel,"Rogue River Reef, OR",2007-Jul-14,2007,42.4633,-124.5,Potential Oil Spill,Grounding
7673,Tug Russel B Murray,"Hampton Roads, VA",2007-Jul-13,2007,36.9633,-76.384,Oil Spill,Grounding
7672,T/V WHITE SEA,"Ambrose Channel, New York",2007-Jul-12,2007,40.5483,-74.0217,Potential Oil Spill,Grounding
7674,M/V HAI TONG #7 ,375 Miles NW of Guam,2007-Jul-11,2007,16.9267,139.435,Other,Typhoon sinks M/V 
7670,Grand Isle 47C,"Sector Morgan City, LA",2007-Jul-06,2007,28.9845,-90.2167,Oil Spill,Transfer
7671,Bering Sea sheen,140 nm WNW St Matthew Island,2007-Jul-06,2007,61.2817,-177.807,Oil Spill,
7669,T/V Eagle Otome,"30nm off Galveston , TX",2007-Jul-01,2007,29.0825,-94.2497,Potential Oil Spill,Grounding
7668,Diesel spill Breton Sound,"2 nm from Breton Is, LA",2007-Jun-29,2007,29.45,-89.15,Oil Spill,Hose failure during transfer ops
7666,MP 288 Oil Spill,"Offshore, LA",2007-Jun-25,2007,29.24,-88.4117,Oil Spill,Pipeline Leak
7664,M/V Koznitsa,"Off Brunswick, Ga",2007-Jun-23,2007,31.0458,-81.2417,Potential Oil Spill,Grounding
7665,Dolphins,"Oceanside, Ca",2007-Jun-21,2007,33.2047,-117.395,Other,Shooting
7663,Mystery Sheen,"Off Newport, RI",2007-Jun-21,2007,41.4,-71.3333,Other,Metallic Mystery Sheen
7662,Mystery spill Vashon Is.,"Burton Beach, Quartermaster Harbor, WA",2007-Jun-19,2007,47.3966,-122.463,Oil Spill,
7661,NOAA R/V CYCLOPS R2601,"Monroe, MI",2007-Jun-18,2007,41.9072,-83.3744,Oil Spill,
7660,Vermilion Parish Well Blowout,"Vermilion Parish, LA",2007-Jun-11,2007,29.5619,-92.2389,Oil Spill,Well Blowout
7659,Mystery Slick,"Off Shore Matansas Inlet, FL",2007-Jun-09,2007,29.5477,-80.6519,Oil Spill,
7657,Main Pass Mystery Spill,"About 30 nm East of Main Pass, Miss R",2007-Jun-07,2007,29.2469,-88.4011,Oil Spill,
7658,Grounded Barge,3/4 mile offshore east of Calcasieu Entrance,2007-Jun-07,2007,28.7707,-93.1951,Oil Spill,
7655,Bayou Pigeon Oil Spill,"Atchafalaya River Basin, LA",2007-Jun-06,2007,30.0344,-91.4233,Oil Spill,Equipment Failure
7654,Cessna Citation,"Milwaukee, WI",2007-Jun-05,2007,43.0383,-87.848,Oil Spill,
7656,Dead Humpback Whale,Off Cape Cod,2007-Jun-04,2007,41.5583,-69.02,Other,
7653,Mystery  spill,"Encinitas, CA",2007-May-31,2007,33.1,-117.367,Oil Spill,
7652,Garden Island Bay,"Mississippi River Delta, LA",2007-May-30,2007,29.0725,-89.1789,Oil Spill,Pipeline Leak
7651,Sunken Tug,"Chandelier Islands, LA",2007-May-25,2007,29.6667,-88.8833,Oil Spill,
7649,ITB Joyce Van Ekenbort,"St. Mary's River, MI",2007-May-24,2007,46.2833,-84.1333,Oil Spill,
7648,Grand Bay Tank Battery #12,Mississippi Delta LA ,2007-May-23,2007,29.3219,-89.2911,Oil Spill,Leaking Tank
7647,Bay Marchand Oil Spill,"Offshore of Fourchon, LA",2007-May-21,2007,29.1003,-90.1617,Oil Spill,"Wellhead flange failure, not complete blowout."
7646,Small boat name unknown,7.5 nm off Tillamook Bay Or,2007-May-19,2007,45.532,-124.142,Oil Spill,
7667,South Pass 24 Flowline Spill,"Mississippi Delta, LA",2007-May-17,2007,29.0275,-89.3378,Oil Spill,Pipeline Leak
7639,Wayward Humpback Whales,"Sacramento River, CA",2007-May-15,2007,38.5625,-121.552,Other,
7638,Mystery slick: Possibly Sewage,"Offshore Ponce, FL",2007-May-13,2007,28.8667,-80.6333,Other,
7637,M/V Paris Express-lost containers,"offshore Cape Hatteras, NC",2007-May-07,2007,35.0167,-75.05,Other,Bad weather caused loss of containers overboard
7635,F/V Miss Kathy,"Sebastioan Inlet, FL",2007-Apr-28,2007,27.8484,-80.4653,Oil Spill,Grounding
7636,Mystery Drums,"Port Everglades, FL",2007-Apr-28,2007,26.1017,-80.02,Other,Mystery Spill
7633,S/V Diva N Shore St Croix,USVI,2007-Apr-24,2007,17.765,-64.635,Potential Oil Spill,Grounding
7634,M/V Fifty-First Lady,"St Thomas, USVI",2007-Apr-24,2007,18.335,-65.8483,Potential Oil Spill,Grounding
7632,F/V Miss Mary,"La Push, WA",2007-Apr-21,2007,47.9686,-125.28,Oil Spill,Sunken Vessel
7630,Tug American Challenger and Barge (Dredge ),"Off Charleston, SC",2007-Apr-11,2007,33.2775,-77.8332,"Oil Spill, Potential Oil Spill",overturned barge
7629,100 gallon diesel spill,"Off Hernando Beach, FL",2007-Apr-08,2007,28.5365,-82.7597,Potential Oil Spill,
7628,Port Washington Dielectric Fluid,NY,2007-Apr-05,2007,40.8364,-70.6633,Other,Cable cut
7627,USCG Satellite Beta Test 1,WA,2007-Mar-30,2007,46.9944,-125.218,Potential Oil Spill,Investigation into possible illegal discharge
7626,Moncla Marina Barge,"East Cote Blanche Bay, LA",2007-Mar-28,2007,29.4887,-91.6483,Oil Spill,Discharge / Dumping
7625,M/V Antilles Two,"Tampa Bay, FL",2007-Mar-28,2007,27.6192,-82.6502,"Potential Oil Spill, Potential Chemical/Biological Spill",Grounding
7624,M/V Anzhela Explorer,"West Hollywood Beach, FL",2007-Mar-26,2007,25.9671,-80.1112,"Oil Spill, Potential Oil Spill",Sunken Vessel
7623,Yacht Mermaid,"Marathon, FL",2007-Mar-20,2007,24.7022,-81.0853,Oil Spill,Transfer
7622,M/V Kobe Express grounding,NY,2007-Mar-17,2007,40.57,-74.04,Potential Oil Spill,Grounding
7621,Ferry American Pride,USVI,2007-Mar-17,2007,18.3132,-64.9188,Potential Oil Spill,Grounding
7631,Right Whale,"Cape Hatteras, NC",2007-Mar-16,2007,35.3479,-75.1966,"Potential Oil Spill, Other",Collision
7620,Mystery Spill,"60 NM offshore White Lake, LA",2007-Mar-12,2007,28.5594,-92.3442,Oil Spill,
7619,Wellhead Incident,"Little Lake, LA",2007-Mar-11,2007,29.5467,-90.163,Oil Spill,Collision
7618,South Pass Block 11 Oil Spill,LA,2007-Mar-06,2007,29.0387,-89.2787,Oil Spill,Pipeline Leak
7617,HCl Release at Gramercy Alumina Facility,"Gramercy, LA",2007-Mar-05,2007,30.0667,-90.7,Chemical/Biological Spill,Equipment Failure
7616,Tank Vessel East Point,"Offshore, Atlantic Ocean",2007-Mar-02,2007,21.31,-58.01,Oil Spill,Discharge / Dumping
7615,M/V Montrose grounding,"Chesapeake Bay, MD",2007-Feb-28,2007,38.6299,-76.4064,Potential Oil Spill,Grounding
7612,Paraquat Drums,"Port Eads, LA",2007-Feb-24,2007,29,-89.15,Potential Chemical/Biological Spill,Post Hurricane Katrina Debris
7611,Mystery Spill in Lake Machias,LA,2007-Feb-24,2007,29.7083,-89.4817,"Oil Spill, Potential Oil Spill",
7610,Central Crude Valentine Terminal,"Lockport, LA",2007-Feb-23,2007,29.5901,-90.444,Oil Spill,Pump Failure
7607,Natural Gas Release,"Bethune, SC",2007-Feb-16,2007,34.414,-80.348,Chemical/Biological Spill,Pipeline Leak
7608,F/V Nisshin Maru,"Cape Adare, Antarctica",2007-Feb-16,2007,-73.33,176.3,Potential Oil Spill,Fire / Explosion
7606,Intercoastal City Diesel Spill,LA,2007-Feb-08,2007,29.7737,-92.175,Oil Spill,
7605,F/V Island Charter,"Offshore Winyah Bay, SC",2007-Feb-07,2007,33.0836,-78.7178,Oil Spill,Sunken Vessel
7604,Mystery Pipeline Spill off SE Pass,LA,2007-Feb-06,2007,29.0719,-89.0022,Potential Oil Spill,Pipeline Leak
7613,Fluorosilicic Acid,"Braithwaite, LA",2007-Feb-05,2007,29.8717,-89.9417,Chemical/Biological Spill,Transfer
6156,Oil Barge Fire,"Mississippi River near Vicksburg, MS",2007-Feb-02,2007,32.156,-91.003,Potential Oil Spill,Oil barge fire
6155,Mona Passage Mystery Spill,Dominican Republic and Puerto Rico,2007-Jan-31,2007,18.3833,-67.7,"Oil Spill, Potential Oil Spill",
6154,F/V American Freedom,"Long Island, NY",2007-Jan-22,2007,40.652,-72.46,Oil Spill,
6153,Well Blowout,"Bayou Perot, LA",2007-Jan-21,2007,29.6667,-90.1167,Oil Spill,Collision
6152,M/V Tong Cheng,Hawaiian Islands,2007-Jan-16,2007,20.6167,-164.767,Potential Oil Spill,Fracture and water in #2 Cargo hold
6151,Grand Bay Pipeline,"Grand Bay, LA",2007-Jan-16,2007,29.3183,-89.2917,Oil Spill,Pipeline Leak
6150,Right Whale Carcass,GA,2007-Jan-03,2007,31.0334,-81.0525,Other,Collision
6149,F/V Wahine Kepaloa II,"Ni'ihau Island, HI",2006-Dec-30,2006,21.8087,-160.193,Oil Spill,Grounding
6148,"Yacht ""Big Blow""","Sunk Off Crystal River, FL",2006-Dec-30,2006,28.8283,-82.8502,Potential Oil Spill,Sunken Vessel
6147,F/V Kotobuki Maru No. 38,Midway Island,2006-Dec-29,2006,28.1933,-177.355,Oil Spill,
6146,"Disabled  Lift Boat  ""Juan""","Offshore, LA",2006-Dec-28,2006,28.5374,-90.9807,Potential Oil Spill,Rig Capsize
6145,Planes Pipeline,"Offshore, TX",2006-Dec-24,2006,28.8317,-94.57,Oil Spill,Pipeline Leak
6144,Barge KIRBY 14625 - Taft,LA,2006-Dec-06,2006,30.0086,-90.4763,Chemical/Biological Spill,
6143,Tug Seneca,"Lake Superior, MI",2006-Dec-06,2006,46.6783,-85.54,Potential Oil Spill,Grounding
6142,Raffinate Spill,"Port Allen Locks, Baton Rouge, LA",2006-Dec-06,2006,30.4341,-91.1953,Oil Spill,Collision
6141,M/V Sea Honesty,"Adak,  Bering Sea, AK",2006-Dec-04,2006,54.7781,-174.958,Potential Oil Spill,Disabled Vessel
6140,CAI Inc. Explosion,"Danvers, MA",2006-Nov-22,2006,42.5467,-70.9167,Chemical/Biological Spill,Fire / Explosion
6139,Main Pass 21,"Breton Sound, LA",2006-Nov-18,2006,29.5651,-89.3374,Oil Spill,Mystery Spill
6138,T/V Kristin Poling,"Rockaway Inlet, NY",2006-Nov-10,2006,40.5875,-73.7667,Potential Oil Spill,Grounding
6137,F/V Medusa,"Off St Petersburg, FL",2006-Nov-07,2006,27.1033,-83.6383,Oil Spill,Sunken Vessel
6136,M/V Star Fuji,"Charleston, SC",2006-Nov-01,2006,32.6877,-79.7843,Potential Chemical/Biological Spill,Leaking Tank
6135,Barge Hilton,Honduras,2006-Oct-25,2006,15.8745,-87.8167,Oil Spill,Grounding
6133,Mystery Spill,"Empire Locks, LA",2006-Oct-22,2006,29.3804,-89.6092,Oil Spill,Mystery Spill
6134,Tug LA MARIE,"Gulf of Mexico, LA",2006-Oct-22,2006,29.4492,-93.4278,Oil Spill,Collision
6131,M/V Vagabond,"Virgin Gorda, BVI",2006-Oct-16,2006,18.4008,-64.4519,Oil Spill,Grounding
6132,Penn Maritime Barge P-120,"Long Island Sound, NY",2006-Oct-16,2006,40.9748,-72.7419,Oil Spill,Transfer
6130,Platform Elly,"Huntington Beach, CA",2006-Oct-06,2006,33.5822,-118.128,Oil Spill,Overlfow
6128,Deck Barge,"Rhode Island Sound, RI",2006-Oct-05,2006,40.5176,-73.0261,Other,Missing barge adrift
6129,Barge MOR 152,"Belle Chasse, LA",2006-Oct-05,2006,29.8203,-90.0071,Oil Spill,spill during Hurricane Katrina salvage operation
6127,Mystery Spill,"Offshore Pass A Loutre, LA",2006-Oct-03,2006,29.2875,-88.9203,Oil Spill,
6126,Mystery Diesel Spill,"New York, NY",2006-Sep-22,2006,40.6417,-74.1433,Oil Spill,
6125,Gas Well Blowout,"South Timbalier Block 8, LA",2006-Sep-20,2006,29.0536,-90.64,"Oil Spill, Other",Well Blowout
6124,Port Manatee Oil Spill,"Tampa Bay, FL",2006-Sep-18,2006,27.6417,-82.5667,Oil Spill,Pipeline Leak
6123,Barge Alafia,"Tampa Bay, FL",2006-Sep-18,2006,27.6083,-82.9917,"Potential Oil Spill, Potential Chemical/Biological Spill",Grounding
6122,M/V Clipper Lasco,"Fort Lauderdale, FL",2006-Sep-14,2006,26.1178,-80.0838,Potential Oil Spill,Grounding
6120,OSV Deep Stim 3,"Offshore South Pass, LA",2006-Sep-11,2006,28.94,-88.9019,Oil Spill,Discharge / Dumping
6121,Conoco Phillips Bayway Refinery,"Carteret, NJ",2006-Sep-08,2006,40.63,-74.22,Oil Spill,Pipeline Leak
6119,M/V Toro,"St. Lawrence Seaway, NY",2006-Sep-06,2006,45,-74.6667,"Potential Oil Spill, Other",Grounding
6118,Styrene Spill,"New Haven Harbor, CT",2006-Sep-05,2006,41.2949,-72.9036,Chemical/Biological Spill,Overturned tank truck
6117,Coastal Barge # 501,"Miami, FL",2006-Sep-04,2006,25.4544,-80.3056,Potential Oil Spill,Grounding
6115,Fish Kill,"Mill Creek, Chelsea, MA",2006-Aug-29,2006,42.4017,-71.0119,"Potential Oil Spill, Chemical/Biological Spill",
6116,Super Typhoon Ioke,Wake Island,2006-Aug-29,2006,19.3,166.6,Potential Oil Spill,Collision
6114,Conoco-Phillips SO2,"Ferndale, WA",2006-Aug-27,2006,47,-122,Chemical/Biological Spill,Flare Stack Release
6113,Tank Vessel Solar 1,"Guimaras, Philippines",2006-Aug-21,2006,10.7,-122.567,Oil Spill,Sunken Vessel
6111,Vessel Hindcast,"Offshore of Cameron, LA",2006-Aug-10,2006,29.3999,-93.3494,Other,Sunken Vessel
6110,F/V Virginia,"Eagle Cove, San Juan Island, WA",2006-Aug-08,2006,48.45,-123,Oil Spill,Sunken Vessel
6064,DRILL -- NOAA Safe Seas 2006 Planning,CA,2006-Aug-07,2006,37.7591,-122.575,"Oil Spill, Potential Oil Spill",Collision
6108,Dredge Barge,"Sturgeon Bay, Lake Michigan, WI",2006-Aug-04,2006,44.322,-86.851,Oil Spill,Sunken Vessel
6107,Chevron Platform,"Main Pass 77, LA",2006-Aug-01,2006,29.1808,-88.9031,Oil Spill,Equipment Failure
6106,Power Plant Oil Spill,"Beirut, Lebanon",2006-Jul-31,2006,33.6,35.4,Oil Spill,Leaking Tank
6105,S.S. Catala,"Ocean Shores, WA",2006-Jul-30,2006,46.5642,-124.071,Potential Oil Spill,Sunken Vessel
6104,OSV Gulf Dream,"SE Brenton Island, LA",2006-Jul-26,2006,29.3483,-89.0817,Oil Spill,Sunken Vessel
6103,R/R Cougar Ace,"North Pacific Ocean, AK",2006-Jul-24,2006,48.13,-174.27,Oil Spill,"Vessel rollover, not sunk yet"
6102,International Petroleum,"Wilmington, DE",2006-Jul-17,2006,39.7414,-75.5392,Oil Spill,Transfer
6101,Mystery Spill,"Savannah River, GA",2006-Jul-17,2006,32.0823,-81.0462,Oil Spill,
6099,F/V Five Gs,"Santa Cruz Island, CA",2006-Jul-12,2006,34.0172,-119.622,"Potential Oil Spill, Other",Grounding
6098,Body drift Analysis,"Cape May, NJ",2006-Jul-12,2006,38.9343,-74.8668,Other,Search & Rescue
6100,F/V Norqueen,"Sitka, AK",2006-Jul-12,2006,56.4113,-135.042,Potential Oil Spill,Drifting fishing vessel
6097,Body Hindcast,"Offshore, NJ",2006-Jul-12,2006,40.24,-73.7102,Other,Search & Rescue
6096,Mystery Spill,"Offshore Port Au Fer, LA",2006-Jul-11,2006,28.1843,-91.2687,Potential Oil Spill,Mystery Spill
6095,Mystery Sheen,"124 NM Offshore, LA",2006-Jul-07,2006,27.7275,-92.822,Oil Spill,Mystery Spill
6094,Citgo Refinery,"Calcasieu River, LA",2006-Jun-21,2006,30.1833,-93.3167,Oil Spill,Leaking Tank
6093,Crude Tall Spill,"Savannah River, Savannah, Ga",2006-Jun-12,2006,32.0817,-81.0483,Oil Spill,Transfer
6092,Exxon/Mobil Terminal,"Boston, MA",2006-Jun-12,2006,42.3891,-71.0592,Oil Spill,Pipeline Leak
6088,M/V SPAR ORION,"Port Everglades, FL",2006-May-17,2006,26.0928,-80.1112,Potential Oil Spill,Grounding
6087,F/V Special Lady,"Lake Salvador, LA",2006-May-16,2006,29.759,-90.2278,Oil Spill,Sunken Vessel
6086,Pesticide Release,"Charleston, SC",2006-May-08,2006,32.895,-79.9617,Chemical/Biological Spill,Leaking Tank
6085,Drifting Abandoned Barge,"Gulf of Alaska, AK",2006-May-04,2006,48.34,-175.24,Potential Oil Spill,Derelict Vessel
6084,Mystery slick,"Off Louisiana, LA",2006-May-03,2006,29.0536,-90.2581,Oil Spill,Mystery Spill
6083,M/V Horizon Producer,"San Juan, Puerto Rico",2006-May-02,2006,19.4149,-65.7575,"Potential Oil Spill, Chemical/Biological Spill",Leaking Shipping Container
6082,M/V Crowley Ambassador,"Florida Keys, FL",2006-May-01,2006,25.4024,-80.0536,"Potential Oil Spill, Other",Search & Rescue
6081,Barge Hygrade 42,"St Croix, US Virgin Islands",2006-Apr-28,2006,17.7527,-64.706,Potential Oil Spill,Grounding
6080,T/V  Margara,"Tallaboa, Puerto Rico",2006-Apr-27,2006,17.95,-66.7267,Potential Oil Spill,Grounding
6079,Mystery Spill,"Delaware Bay, NJ",2006-Apr-24,2006,39.1667,-75.1667,Oil Spill,
6078,Mystery sheen,"Offshore Fourchon, LA",2006-Apr-24,2006,28.85,-90.1667,Oil Spill,Mystery Spill
6077,Barge w/Styrene,"Intercoastal Waterway MM110, LA",2006-Apr-21,2006,29.6611,-91.4328,Potential Chemical/Biological Spill,Unknown problem on barge.  No release. Precautionary.
6076,Block 33 Mystery Spill,"Offshore, LA",2006-Apr-20,2006,29.0269,-89.9233,Oil Spill,Mystery Spill
6072,CMS London Express,"Elliot Bay, WA",2006-Apr-09,2006,47.5889,-122.346,Chemical/Biological Spill,Leaking Shipping Container
6073,F-16 Jet Crash,"Myrtle Beach, SC",2006-Apr-05,2006,33.3033,-78.4083,Oil Spill,Plane Crash
6071,F/V Blue North,"NW Unalaska Island, AK",2006-Mar-31,2006,53.6313,-167.839,Potential Oil Spill,Vessel Adrift
6070,M/V Empress of the North,"Columbia River, WA",2006-Mar-24,2006,45.5717,-122.36,Potential Oil Spill,Grounding
6069,Elliott Bay Mystery Spill,"Seattle, WA",2006-Mar-17,2006,47.6,-122.35,Oil Spill,Mystery Spill
6067,Irving Oil,"Chelsea Creek, MA",2006-Mar-09,2006,42.3975,-71.0104,Oil Spill,Transfer
6066,Hurricane Katrina Wreck Removal,LA,2006-Mar-07,2006,29.95,-90.0642,"Oil Spill, Potential Oil Spill, Other",Sunken Vessel
6065,MSC Ingrid: Ethyl Mercaptin,"Savannah, GA",2006-Mar-03,2006,32.0827,-81.0914,Potential Chemical/Biological Spill,Leaking Shipping Container
7614,Chemical Barge Spill,"Brookport, IL",2006-Feb-28,2006,37.1257,-88.6533,Potential Chemical/Biological Spill,Collision
6063,F/V Relentless,"Half Moon Bay, CA",2006-Feb-23,2006,37.6,-122.933,Other,Sunken Vessel
6062,Mystery Spill,"Pralls Is., NY",2006-Feb-22,2006,40.6167,-74.2033,Oil Spill,
7609,Tank Barge Fire,"Pas A Loutre, LA",2006-Feb-17,2006,29.1417,-89.1967,Oil Spill,Fire / Explosion
6061,F/V Miss Caroline,"Montauk Pt, NY",2006-Feb-16,2006,40.8333,-71.8967,Potential Oil Spill,Vessel capsized and adrift
6060,Chevron Facility,"Sewarren, NJ",2006-Feb-13,2006,40.544,-74.256,Oil Spill,Transfer
6058,T/V Seabulk Pride,"Nikiski, AK",2006-Feb-02,2006,60.6767,-151.403,Potential Oil Spill,Grounding
6057,LOOP Mystery Spill,"Coastal, LA",2006-Feb-02,2006,29.0562,-90.1827,Oil Spill,
6055,Main Pass Block 299,"Offshore, LA",2006-Feb-01,2006,29.2686,-88.7558,"Oil Spill, Potential Oil Spill",Compressor failure on platform
6052,Asphalt Barge M-53,"Louisville, KY",2006-Jan-26,2006,38.2819,-85.7986,Oil Spill,Collision
6051,F/V Chovie Clipper,"Catalina Island, CA",2006-Jan-23,2006,33.45,-118.483,Oil Spill,Vessel sinking
6050,Barge Energy 5501,"New Haven, CT",2006-Jan-21,2006,41.2822,-72.9118,"Oil Spill, Potential Oil Spill",Leaking Tank
6047,Tank Barge Maritrans-192,"Offshore Cape Fear, NC",2006-Jan-18,2006,33.4869,-77.7333,Potential Oil Spill,Barge adrift
6049,Tug Valour,NC,2006-Jan-18,2006,33.285,-77.69,Potential Oil Spill,Sunken Vessel
6046,F/V Captain Chance,"Near Tampa, FL",2006-Jan-17,2006,28.15,-82.8317,"Oil Spill, Potential Oil Spill",Grounding
6045,Hurricane Katrina Debris Fire,"Southern Scrap, New Orleans, LA",2006-Jan-13,2006,29.9876,-90.0145,"Potential Chemical/Biological Spill, Other",Fire / Explosion
6044,Mystery Sheen,"Off Grand Isle, LA",2006-Jan-12,2006,29.0192,-90.0683,Oil Spill,Mystery Spill
6043,Island End River Mystery Spill,"Boston, MA",2006-Jan-10,2006,42.3911,-71.0516,Oil Spill,
6040,F/V Northern Orion,"Offshore, Oregon",2006-Jan-10,2006,46.1034,-124.473,Potential Oil Spill,Vessel adrift
6039,F/V Infidel,"SSW of Catalina Island, CA",2006-Jan-09,2006,33.2978,-118.317,Potential Oil Spill,Sunken Vessel
6038,F/V  Buccaneer,"Point Mugu, CA",2006-Jan-06,2006,34.0467,-119.117,Potential Oil Spill,Sunken Vessel
6037,F/V Hail Mary II,"Long Island, NY",2006-Jan-03,2006,40.85,-72.4833,Potential Oil Spill,Grounding
6036,M/V Panama,"Ensenada, Mexico",2005-Dec-28,2005,31.8591,-116.618,Potential Oil Spill,Grounding
6035,Missing Rowan MODUs,LA,2005-Dec-19,2005,28.0739,-92.6989,Other,Hurricane Damage
6034,Conoco-Phillips Bayway,NJ,2005-Dec-16,2005,40.6081,-74.2289,Oil Spill,Pipeline Leak
6033,F/V Sky Sun,"Cape Kumukahi, HI",2005-Dec-15,2005,19.465,-154.826,Potential Oil Spill,Grounding
6032,F/V Captain A.B.,FL,2005-Dec-14,2005,30.1183,-81.345,Potential Oil Spill,Grounding
6031,Volunteer Asphalt Company,TN,2005-Dec-14,2005,35.9529,-83.8605,"Oil Spill, Potential Oil Spill",Hose failure during product transfer
6030,Delta Fuels Storage Tank,OH,2005-Dec-08,2005,41.6586,-83.5047,Oil Spill,Tank overfill
6028,F/V Ace,"Dana Point, CA",2005-Nov-28,2005,33.408,-117.65,Oil Spill,Sunken Vessel
6029,Barge Piney Point,"James River, VA",2005-Nov-28,2005,37.4033,-77.3933,"Oil Spill, Potential Oil Spill",Grounding
6027,R/V L'ARTENTEUR,"OFFSHORE, LA",2005-Nov-25,2005,28.6133,-91.9983,Oil Spill,Vessel has sunk.
1314,T/V Sperchious,"Bahia de Guayanilla, Puerto Rico",2005-Nov-21,2005,17.9607,-66.7683,Potential Oil Spill,Grounding
1311,TB DBL 152,"Offshore, LA",2005-Nov-11,2005,29.2058,-93.468,Oil Spill,Collision
1313,FV Bold Contender,"Offshore Lincoln City, OR",2005-Nov-11,2005,44.7663,-124.117,Potential Oil Spill,Vessel adrift
1312,Mercury Release,"Florence, OR",2005-Nov-07,2005,44.0278,-124.137,Chemical/Biological Spill,Mystery Spill
6026,Hurricane Katrina Hazmat Debris Removal,LA,2005-Nov-04,2005,29.9725,-90.065,Other,EFS Debris Assessment
6002,Hurricane Wilma (General),East Coast,2005-Oct-22,2005,26.1401,-81.7959,Other,Hurricane
1310,Maumee River Mystery Spill,"Toledo, OH",2005-Oct-17,2005,41.6608,-83.5121,Oil Spill,Mystery Spill
1307,Union Pacific Tank Battery,"Pelican Island, Galveston, TX",2005-Oct-12,2005,29.3056,-94.826,Oil Spill,Mystery Spill
1309,Masters Resources A-1 Platform,"Galveston Bay, TX",2005-Oct-10,2005,29.5332,-94.8502,Oil Spill,
1305,F/V Eric H,"Offshore St. Petersburg, FL",2005-Oct-05,2005,26.6683,-84.0883,Potential Oil Spill,
1306,Tank Truck Accident,"Seven-Mile Bridge, Marathon, FL",2005-Oct-05,2005,24.7059,-81.1401,Oil Spill,Collision
6023,MSU Morgan City Response &amp; Offshore Observations,LA,2005-Oct-03,2005,29.7004,-91.2056,"Potential Oil Spill, Other",Hurricane Rita
6021,Vermilion Pipeline Block 255,"Offshore, LA",2005-Sep-29,2005,28.5408,-92.3178,Oil Spill,Pipeline Leak
6019,Hurricane Rita (General),LA/TX,2005-Sep-21,2005,30.2298,-93.2194,"Oil Spill, Potential Oil Spill, Chemical/Biological Spill, Potential Chemical/Biological Spill",Hurricane Rita
1304,Sunken Calcium Chloride Barge,"Mississippi River Mile 956, Cairo, IL",2005-Sep-16,2005,37.002,-89.196,Chemical/Biological Spill,Sunken Vessel
6014,Hurricane Katrina (MS and AL General),MS/AL,2005-Sep-07,2005,30.6888,-88.0493,"Potential Oil Spill, Potential Chemical/Biological Spill",Weather: Hurricane Katrina
6005,Hurricane Katrina Bass Enterprises,LA,2005-Sep-06,2005,29.4628,-89.6235,Oil Spill,Weather: Hurricane Katrina
6006,Hurricane Katrina Chevron Empire ,LA,2005-Sep-06,2005,29.3693,-89.5349,Oil Spill,Weather: Hurricane Katrina
6004,Hurricane Katrina Chevron Wagon Wheel,LA,2005-Sep-06,2005,29.2242,-89.3936,Oil Spill,Weather: Hurricane Katrina
6015,Hurricane Katrina Dynegy Venice,LA,2005-Sep-05,2005,29.2232,-89.3948,"Oil Spill, Other",Weather: Hurricane Katrina
6011,Hurricane Katrina Forrest Oil,LA,2005-Sep-05,2005,29.0556,-89.3064,Oil Spill,Weather: Hurricane Katrina
6003,Hurricane Katrina Murphy Oil,LA,2005-Sep-05,2005,29.9492,-89.9306,Oil Spill,Weather: Hurricane Katrina
6017,Hurricane Katrina Shell Pilot Town,LA,2005-Sep-05,2005,29.1843,-89.2501,"Oil Spill, Other",Weather: Hurricane Katrina
6010,Hurricane Katrina Shell Nairn,LA,2005-Sep-05,2005,29.4465,-89.617,Oil Spill,Weather: Hurricane Katrina
6009,Hurricane Katrina Mystery Tank N of Pilot Town ,LA,2005-Sep-05,2005,29.1847,-89.5375,Potential Oil Spill,Weather: Hurricane Katrina
6008,Hurricane Katrina Sundown,LA,2005-Sep-05,2005,29.5,-89.7,Oil Spill,Weather: Hurricane Katrina
